{
  "f01000": {
    "provider": "f01000",
    "region": "AS-CN-EAST-SH",
    "long": 121.4879,
    "lat": 31.24916,
    "numLocations": 2,
    "country": "CN",
    "city": "Shanghai",
    "delegate": "f0152337"
  },
  "f01001": {
    "provider": "f01001",
    "region": "AS-CN-NORTH-SD",
    "long": 118.527664,
    "lat": 36.09929,
    "numLocations": 1,
    "country": "CN",
    "city": "Shandong",
    "delegate": "f0144313"
  },
  "f01002": {
    "provider": "f01002",
    "region": "AS-KR",
    "long": 127.1377,
    "lat": 37.4331,
    "numLocations": 1,
    "country": "KR",
    "subdiv1": "41",
    "city": "Seongnam-si",
    "delegate": "f01317157"
  },
  "f01012": {
    "provider": "f01012",
    "region": "AS-HK",
    "long": 114.1657,
    "lat": 22.2578,
    "numLocations": 2,
    "country": "HK"
  },
  "f01013": {
    "provider": "f01013",
    "region": "AS-CN-SOUTHWEST-SC",
    "long": 104.067924,
    "lat": 30.679943,
    "numLocations": 1,
    "country": "CN",
    "city": "Chengdu",
    "delegate": "f082095"
  },
  "f01100": {
    "provider": "f01100",
    "region": "EU-SOUTH-RS",
    "long": 20.0742,
    "lat": 45.0485,
    "numLocations": 1,
    "country": "RS",
    "subdiv1": "VO",
    "city": "Ingija",
    "delegate": "f083235"
  },
  "f01101": {
    "provider": "f01101",
    "region": "NA-US-XX",
    "long": -97.822,
    "lat": 37.751,
    "numLocations": 1,
    "country": "US",
    "delegate": "f01847751"
  },
  "f01102": {
    "provider": "f01102",
    "region": "EU-EAST-RU",
    "long": 135.083,
    "lat": 48.4817,
    "numLocations": 3,
    "country": "RU",
    "subdiv1": "KHA",
    "city": "Khabarovsk",
    "delegate": "f015767"
  },
  "f01151": {
    "provider": "f01151",
    "region": "NA-US-SOUTH-NC",
    "long": -79.8557,
    "lat": 35.6383,
    "numLocations": 1,
    "country": "US",
    "subdiv1": "NC",
    "city": "Asheboro",
    "delegate": "f014409"
  },
  "f01152": {
    "provider": "f01152",
    "region": "AS-CN-NORTH-BJ",
    "long": 116.40388,
    "lat": 39.91489,
    "numLocations": 1,
    "country": "CN",
    "city": "Beijing"
  },
  "f01154": {
    "provider": "f01154",
    "region": "EU-NORTH-SE",
    "long": 18.01,
    "lat": 59.2735,
    "numLocations": 1,
    "country": "SE",
    "subdiv1": "AB",
    "city": "Alvsjo"
  },
  "f01155": {
    "provider": "f01155",
    "region": "AS-CN-EAST-SH",
    "long": 121.4879,
    "lat": 31.24916,
    "numLocations": 1,
    "country": "CN",
    "city": "Shanghai"
  },
  "f01156": {
    "provider": "f01156",
    "region": "AS-CN-NORTH-NM",
    "long": 111.66035,
    "lat": 40.82832,
    "numLocations": 3,
    "country": "CN",
    "subdiv1": "BJ",
    "city": "Beijing",
    "delegate": "f070932"
  },
  "f01229": {
    "provider": "f01229",
    "region": "AS-HK",
    "long": 114.1657,
    "lat": 22.2578,
    "numLocations": 1,
    "country": "HK",
    "delegate": "f0115117"
  },
  "f01231": {
    "provider": "f01231",
    "region": "AS-CN-EAST-SH",
    "long": 121.48054,
    "lat": 31.23593,
    "numLocations": 3,
    "country": "CN",
    "city": "Shanghai"
  },
  "f01232": {
    "provider": "f01232",
    "region": "AS-HK",
    "long": 114.1501,
    "lat": 22.2908,
    "numLocations": 2,
    "country": "HK",
    "subdiv1": "HCW",
    "city": "Central",
    "delegate": "f010202"
  },
  "f01234": {
    "provider": "f01234",
    "region": "EU-WEST-BE",
    "long": 4.3447,
    "lat": 50.8509,
    "numLocations": 1,
    "country": "BE"
  },
  "f01235": {
    "provider": "f01235",
    "region": "AS-SG",
    "long": 103.8014,
    "lat": 1.3673,
    "numLocations": 1,
    "country": "SG"
  },
  "f01236": {
    "provider": "f01236",
    "region": "AS-SG",
    "long": 103.8014,
    "lat": 1.3673,
    "numLocations": 1,
    "country": "SG",
    "delegate": "f09037"
  },
  "f01238": {
    "provider": "f01238",
    "region": "AS-VN",
    "long": 105.8516,
    "lat": 21.0313,
    "numLocations": 1,
    "country": "VN",
    "subdiv1": "HN",
    "city": "Hanoi"
  },
  "f01240": {
    "provider": "f01240",
    "region": "EU-WEST-NL",
    "long": 4.8995,
    "lat": 52.3824,
    "numLocations": 1,
    "country": "NL"
  },
  "f01241": {
    "provider": "f01241",
    "region": "AS-CN-NORTHWEST-XJ",
    "long": 84.88118,
    "lat": 45.59433,
    "numLocations": 1,
    "country": "CN",
    "city": "Karamay"
  },
  "f01243": {
    "provider": "f01243",
    "region": "AS-CN-NORTH-BJ",
    "long": 116.40388,
    "lat": 39.91489,
    "numLocations": 1,
    "country": "CN",
    "city": "Beijing",
    "delegate": "f01045078"
  },
  "f01247": {
    "provider": "f01247",
    "region": "NA-CA-QC",
    "long": -73.5848,
    "lat": 45.4995,
    "numLocations": 1,
    "country": "CA",
    "subdiv1": "QC",
    "city": "Montreal"
  },
  "f01248": {
    "provider": "f01248",
    "region": "AS-CN-SOUTH-GD",
    "long": 113.078125,
    "lat": 22.575117,
    "numLocations": 3,
    "country": "CN",
    "city": "Jiangmen"
  },
  "f01272": {
    "provider": "f01272",
    "region": "AS-CN-EAST-JS",
    "long": 119.42778,
    "lat": 32.408504,
    "numLocations": 1,
    "country": "CN",
    "city": "Yangzhou"
  },
  "f01274": {
    "provider": "f01274",
    "region": "AS-JP",
    "long": 139.6895,
    "lat": 35.6897,
    "numLocations": 1,
    "country": "JP"
  },
  "f01275": {
    "provider": "f01275",
    "region": "AS-KR",
    "long": 126.9741,
    "lat": 37.5112,
    "numLocations": 1,
    "country": "KR",
    "delegate": "f01383151"
  },
  "f01276": {
    "provider": "f01276",
    "region": "NA-CA-QC",
    "long": -72.9248,
    "lat": 45.6549,
    "numLocations": 1,
    "country": "CA",
    "subdiv1": "QC",
    "city": "Saint-Hyacinthe"
  },
  "f01277": {
    "provider": "f01277",
    "region": "EU-NORTH-SE",
    "long": 17.7834,
    "lat": 59.7285,
    "numLocations": 1,
    "country": "SE",
    "subdiv1": "C",
    "city": "Knivsta"
  },
  "f01278": {
    "provider": "f01278",
    "region": "NA-US-MIDWEST-MI",
    "long": -85.6531,
    "lat": 42.9332,
    "numLocations": 1,
    "country": "US",
    "subdiv1": "MI",
    "city": "Grand Rapids"
  },
  "f01279": {
    "provider": "f01279",
    "region": "AS-CN-SOUTHWEST-SC",
    "long": 102.89916,
    "lat": 30.367481,
    "numLocations": 1,
    "country": "CN",
    "city": "Sichuan"
  },
  "f01280": {
    "provider": "f01280",
    "region": "AS-CN-EAST-JS",
    "long": 120.30546,
    "lat": 31.570038,
    "numLocations": 1,
    "country": "CN",
    "city": "Wuxi"
  },
  "f01287": {
    "provider": "f01287",
    "region": "AS-CN-EAST-ZJ",
    "long": 120.76043,
    "lat": 30.773993,
    "numLocations": 1,
    "country": "CN",
    "city": "Jiaxing"
  },
  "f01288": {
    "provider": "f01288",
    "region": "AS-CN-NORTHWEST-SN",
    "long": 108.953094,
    "lat": 34.2778,
    "numLocations": 2,
    "country": "CN",
    "city": "Xi'an",
    "delegate": "f0134839"
  },
  "f01289": {
    "provider": "f01289",
    "region": "AS-CN-EAST-ZJ",
    "long": 121.579,
    "lat": 29.88526,
    "numLocations": 1,
    "country": "CN",
    "city": "Ningbo"
  },
  "f01291": {
    "provider": "f01291",
    "region": "EU-NORTH-SE",
    "long": 18.0653,
    "lat": 59.3274,
    "numLocations": 1,
    "country": "SE",
    "subdiv1": "AB",
    "city": "Stockholm"
  },
  "f01314": {
    "provider": "f01314",
    "region": "AS-CN-EAST-ZJ",
    "long": 120.219376,
    "lat": 30.259245,
    "numLocations": 1,
    "country": "CN",
    "city": "Hangzhou"
  },
  "f01475": {
    "provider": "f01475",
    "region": "AS-SG",
    "long": 103.8014,
    "lat": 1.3673,
    "numLocations": 1,
    "country": "SG"
  },
  "f01750": {
    "provider": "f01750",
    "region": "AS-CN-XX",
    "long": 84.8959,
    "lat": 45.585674,
    "numLocations": 2,
    "country": "CN",
    "city": "Karamay"
  },
  "f01782": {
    "provider": "f01782",
    "region": "AS-CN-EAST-SH",
    "long": 121.4879,
    "lat": 31.24916,
    "numLocations": 1,
    "country": "CN",
    "city": "Shanghai"
  },
  "f01799": {
    "provider": "f01799",
    "region": "AS-CN-NORTH-SD",
    "long": 117.02496,
    "lat": 36.682785,
    "numLocations": 2,
    "country": "CN",
    "city": "Jinan"
  },
  "f01800": {
    "provider": "f01800",
    "region": "AS-CN-SOUTHWEST-SC",
    "long": 104.067924,
    "lat": 30.679943,
    "numLocations": 2,
    "country": "CN",
    "city": "Chengdu"
  },
  "f01801": {
    "provider": "f01801",
    "region": "EU-WEST-CH",
    "long": 8.3056,
    "lat": 47.0511,
    "numLocations": 2,
    "country": "CH",
    "subdiv1": "LU",
    "city": "Lucerne",
    "delegate": "f022163"
  },
  "f02299": {
    "provider": "f02299",
    "region": "AS-CN-NORTH-BJ",
    "long": 116.40388,
    "lat": 39.91489,
    "numLocations": 1,
    "country": "CN",
    "city": "Beijing"
  },
  "f02301": {
    "provider": "f02301",
    "region": "NA-US-XX",
    "long": -97.822,
    "lat": 37.751,
    "numLocations": 3,
    "country": "US"
  },
  "f02303": {
    "provider": "f02303",
    "region": "EU-WEST-DE",
    "long": 8.6843,
    "lat": 50.1188,
    "numLocations": 1,
    "country": "DE",
    "subdiv1": "HE",
    "city": "Frankfurt am Main"
  },
  "f02304": {
    "provider": "f02304",
    "region": "AS-CN-SOUTHCENTRAL-HN",
    "long": 112.979355,
    "lat": 28.213478,
    "numLocations": 3,
    "country": "CN",
    "city": "Changsha",
    "delegate": "f0218407"
  },
  "f02305": {
    "provider": "f02305",
    "region": "AS-HK",
    "long": 114.1657,
    "lat": 22.2578,
    "numLocations": 2,
    "country": "HK",
    "delegate": "f095334"
  },
  "f02307": {
    "provider": "f02307",
    "region": "AS-CN-NORTH-HA",
    "long": 113.4868,
    "lat": 34.157185,
    "numLocations": 1,
    "country": "CN",
    "city": "Henan",
    "delegate": "f0101018"
  },
  "f02381": {
    "provider": "f02381",
    "region": "AS-CN-SOUTH-GD",
    "long": 113.763435,
    "lat": 23.043024,
    "numLocations": 1,
    "country": "CN",
    "city": "Dongguan"
  },
  "f02382": {
    "provider": "f02382",
    "region": "AS-HK",
    "long": 114.1657,
    "lat": 22.2578,
    "numLocations": 1,
    "country": "HK",
    "delegate": "f01198583"
  },
  "f02383": {
    "provider": "f02383",
    "region": "AS-CN-EAST-JS",
    "long": 119.36849,
    "lat": 33.013798,
    "numLocations": 1,
    "country": "CN",
    "city": "Jiangsu",
    "delegate": "f01100262"
  },
  "f02385": {
    "provider": "f02385",
    "region": "AS-HK",
    "long": 114.1657,
    "lat": 22.2578,
    "numLocations": 1,
    "country": "HK",
    "delegate": "f01170291"
  },
  "f02386": {
    "provider": "f02386",
    "region": "EU-NORTH-LV",
    "long": 24.06,
    "lat": 56.8844,
    "numLocations": 1,
    "country": "LV",
    "subdiv1": "062",
    "city": "Tiraine",
    "delegate": "f099608"
  },
  "f02387": {
    "provider": "f02387",
    "region": "NA-CA-QC",
    "long": -72.9248,
    "lat": 45.6549,
    "numLocations": 1,
    "country": "CA",
    "subdiv1": "QC",
    "city": "Saint-Hyacinthe"
  },
  "f02388": {
    "provider": "f02388",
    "region": "AS-CN-EAST-SH",
    "long": 121.4879,
    "lat": 31.24916,
    "numLocations": 2,
    "country": "CN",
    "city": "Shanghai",
    "delegate": "f053088"
  },
  "f02398": {
    "provider": "f02398",
    "region": "AS-HK",
    "long": 114.1667,
    "lat": 22.3,
    "numLocations": 2,
    "country": "HK",
    "subdiv1": "KKC",
    "city": "Tsimshatsui",
    "delegate": "f01752989"
  },
  "f02399": {
    "provider": "f02399",
    "region": "AS-CN-EAST-SH",
    "long": 121.4879,
    "lat": 31.24916,
    "numLocations": 1,
    "country": "CN",
    "city": "Shanghai"
  },
  "f02400": {
    "provider": "f02400",
    "region": "AS-CN-XX",
    "long": 113.722,
    "lat": 34.7732,
    "numLocations": 2,
    "country": "CN",
    "delegate": "f019240"
  },
  "f02401": {
    "provider": "f02401",
    "region": "NA-CA-QC",
    "long": -72.9248,
    "lat": 45.6549,
    "numLocations": 1,
    "country": "CA",
    "subdiv1": "QC",
    "city": "Saint-Hyacinthe"
  },
  "f02403": {
    "provider": "f02403",
    "region": "EU-NORTH-GB",
    "long": -0.02,
    "lat": 51.5064,
    "numLocations": 2,
    "country": "GB",
    "subdiv1": "ENG",
    "city": "London"
  },
  "f02404": {
    "provider": "f02404",
    "region": "AS-KR",
    "long": 126.9864,
    "lat": 37.5944,
    "numLocations": 2,
    "country": "KR",
    "subdiv1": "11",
    "city": "Seoul",
    "delegate": "f065280"
  },
  "f02405": {
    "provider": "f02405",
    "region": "AS-CN-SOUTH-GD",
    "long": 114.02597,
    "lat": 22.546053,
    "numLocations": 1,
    "country": "CN",
    "city": "Shenzhen"
  },
  "f02414": {
    "provider": "f02414",
    "region": "AS-HK",
    "long": 114.1657,
    "lat": 22.2578,
    "numLocations": 2,
    "country": "HK",
    "delegate": "f079370"
  },
  "f02415": {
    "provider": "f02415",
    "region": "AS-CN-SOUTH-GD",
    "long": 113.763435,
    "lat": 23.043024,
    "numLocations": 3,
    "country": "CN",
    "city": "Dongguan"
  },
  "f02416": {
    "provider": "f02416",
    "region": "AS-CN-SOUTH-GD",
    "long": 114.02597,
    "lat": 22.546053,
    "numLocations": 1,
    "country": "CN",
    "city": "Shenzhen"
  },
  "f02417": {
    "provider": "f02417",
    "region": "AS-CN-NORTHEAST-LN",
    "long": 114.89378,
    "lat": 40.811188,
    "numLocations": 1,
    "country": "CN",
    "city": "Zhangjiakou"
  },
  "f02418": {
    "provider": "f02418",
    "region": "AS-CN-SOUTH-GD",
    "long": 113.763435,
    "lat": 23.043024,
    "numLocations": 1,
    "country": "CN",
    "city": "Dongguan",
    "delegate": "f01042229"
  },
  "f02419": {
    "provider": "f02419",
    "region": "AS-CN-EAST-SH",
    "long": 121.4879,
    "lat": 31.24916,
    "numLocations": 1,
    "country": "CN",
    "city": "Shanghai"
  },
  "f02420": {
    "provider": "f02420",
    "region": "NA-US-SOUTH-VA",
    "long": -77.2481,
    "lat": 38.6583,
    "numLocations": 1,
    "country": "US",
    "subdiv1": "VA"
  },
  "f02421": {
    "provider": "f02421",
    "region": "AS-SG",
    "long": 103.8195,
    "lat": 1.2923,
    "numLocations": 3,
    "country": "SG",
    "city": "Singapore"
  },
  "f02422": {
    "provider": "f02422",
    "region": "AS-CN-NORTHWEST-SN",
    "long": 108.953094,
    "lat": 34.2778,
    "numLocations": 1,
    "country": "CN",
    "city": "Xi'an"
  },
  "f02423": {
    "provider": "f02423",
    "region": "EU-EAST-UA",
    "long": 30.5303,
    "lat": 50.458,
    "numLocations": 1,
    "country": "UA",
    "subdiv1": "30",
    "city": "Kyiv"
  },
  "f02424": {
    "provider": "f02424",
    "region": "AS-CN-EAST-SH",
    "long": 121.4054,
    "lat": 31.0442,
    "numLocations": 2,
    "country": "CN",
    "subdiv1": "SH",
    "city": "Shanghai",
    "delegate": "f01228105"
  },
  "f02425": {
    "provider": "f02425",
    "region": "AS-XX",
    "long": 78.5075,
    "lat": 17.4254,
    "numLocations": 2,
    "country": "IN",
    "subdiv1": "TG",
    "city": "Hyderabad"
  },
  "f02436": {
    "provider": "f02436",
    "region": "AS-SG",
    "long": 103.9143,
    "lat": 1.3153,
    "numLocations": 1,
    "country": "SG",
    "city": "Singapore",
    "delegate": "f01715155"
  },
  "f02438": {
    "provider": "f02438",
    "region": "AS-CN-SOUTH-GD",
    "long": 113.39482,
    "lat": 23.408003,
    "numLocations": 2,
    "country": "CN",
    "city": "Guangdong"
  },
  "f02490": {
    "provider": "f02490",
    "region": "EU-WEST-DE",
    "long": 8.6843,
    "lat": 50.1188,
    "numLocations": 2,
    "country": "DE",
    "subdiv1": "HE",
    "city": "Frankfurt am Main"
  },
  "f02492": {
    "provider": "f02492",
    "region": "AS-HK",
    "long": 114.1657,
    "lat": 22.2578,
    "numLocations": 1,
    "country": "HK"
  },
  "f02500": {
    "provider": "f02500",
    "region": "AS-KR",
    "long": 127.1377,
    "lat": 37.4331,
    "numLocations": 1,
    "country": "KR",
    "subdiv1": "41",
    "city": "Seongnam-si"
  },
  "f02501": {
    "provider": "f02501",
    "region": "AS-CN-NORTHWEST-XJ",
    "long": 84.88118,
    "lat": 45.59433,
    "numLocations": 2,
    "country": "CN",
    "city": "Karamay"
  },
  "f02503": {
    "provider": "f02503",
    "region": "EU-WEST-DE",
    "long": 8.6843,
    "lat": 50.1188,
    "numLocations": 1,
    "country": "DE",
    "subdiv1": "HE",
    "city": "Frankfurt am Main"
  },
  "f02505": {
    "provider": "f02505",
    "region": "AS-CN-EAST-SH",
    "long": 121.4879,
    "lat": 31.24916,
    "numLocations": 1,
    "country": "CN",
    "city": "Shanghai",
    "delegate": "f0119997"
  },
  "f02506": {
    "provider": "f02506",
    "region": "AS-CN-XX",
    "long": 119.653435,
    "lat": 29.084639,
    "numLocations": 2,
    "country": "CN",
    "city": "Jinhua",
    "delegate": "f015885"
  },
  "f02514": {
    "provider": "f02514",
    "region": "AS-HK",
    "long": 113.9636,
    "lat": 22.4019,
    "numLocations": 2,
    "country": "HK",
    "subdiv1": "NTM",
    "city": "Tuen Mun San Hui"
  },
  "f02515": {
    "provider": "f02515",
    "region": "AS-CN-NORTH-SD",
    "long": 118.527664,
    "lat": 36.09929,
    "numLocations": 1,
    "country": "CN",
    "city": "Shandong",
    "delegate": "f0144313"
  },
  "f02516": {
    "provider": "f02516",
    "region": "AS-HK",
    "long": 114.1501,
    "lat": 22.2908,
    "numLocations": 2,
    "country": "HK",
    "subdiv1": "HCW",
    "city": "Central",
    "delegate": "f055102"
  },
  "f02518": {
    "provider": "f02518",
    "region": "AS-CN-SOUTHCENTRAL-HN",
    "long": 112.979355,
    "lat": 28.213478,
    "numLocations": 3,
    "country": "CN",
    "city": "Changsha",
    "delegate": "f0218407"
  },
  "f02519": {
    "provider": "f02519",
    "region": "AS-VN",
    "long": 105.8516,
    "lat": 21.0313,
    "numLocations": 1,
    "country": "VN",
    "subdiv1": "HN",
    "city": "Hanoi",
    "delegate": "f01111110"
  },
  "f02520": {
    "provider": "f02520",
    "region": "EU-WEST-DE",
    "long": 8.6843,
    "lat": 50.1188,
    "numLocations": 3,
    "country": "DE",
    "subdiv1": "HE",
    "city": "Frankfurt am Main"
  },
  "f02528": {
    "provider": "f02528",
    "region": "EU-WEST-DE",
    "long": 8.6843,
    "lat": 50.1188,
    "numLocations": 2,
    "country": "DE",
    "subdiv1": "HE",
    "city": "Frankfurt am Main"
  },
  "f02529": {
    "provider": "f02529",
    "region": "EU-WEST-DE",
    "long": 8.6843,
    "lat": 50.1188,
    "numLocations": 2,
    "country": "DE",
    "subdiv1": "HE",
    "city": "Frankfurt am Main"
  },
  "f02532": {
    "provider": "f02532",
    "region": "AS-HK",
    "long": 114.1657,
    "lat": 22.2578,
    "numLocations": 1,
    "country": "HK",
    "delegate": "f01198583"
  },
  "f02533": {
    "provider": "f02533",
    "region": "AS-HK",
    "long": 114.1657,
    "lat": 22.2578,
    "numLocations": 1,
    "country": "HK",
    "delegate": "f0132618"
  },
  "f02534": {
    "provider": "f02534",
    "region": "AS-CN-SOUTH-GD",
    "long": 113.39482,
    "lat": 23.408003,
    "numLocations": 2,
    "country": "CN",
    "city": "Guangdong",
    "delegate": "f0488889"
  },
  "f02540": {
    "provider": "f02540",
    "region": "NA-US-NORTHEAST-NJ",
    "long": -74.4871,
    "lat": 40.4551,
    "numLocations": 1,
    "country": "US",
    "subdiv1": "NJ",
    "city": "North Brunswick"
  },
  "f02574": {
    "provider": "f02574",
    "region": "AS-JP",
    "long": 134.0452,
    "lat": 34.3316,
    "numLocations": 2,
    "country": "JP",
    "subdiv1": "37",
    "city": "Takamatsu",
    "delegate": "f0145162"
  },
  "f02575": {
    "provider": "f02575",
    "region": "EU-NORTH-IE",
    "long": -9.515,
    "lat": 52.0463,
    "numLocations": 2,
    "country": "IE",
    "subdiv1": "M",
    "city": "Killarney",
    "delegate": "f063869"
  },
  "f02576": {
    "provider": "f02576",
    "region": "EU-NORTH-DK",
    "long": 12.5369,
    "lat": 55.747,
    "numLocations": 2,
    "country": "DK",
    "subdiv1": "84",
    "city": "Gentofte Municipality"
  },
  "f02577": {
    "provider": "f02577",
    "region": "EU-EAST-RU",
    "long": 135.083,
    "lat": 48.4817,
    "numLocations": 3,
    "country": "RU",
    "subdiv1": "KHA",
    "city": "Khabarovsk",
    "delegate": "f014392"
  },
  "f02606": {
    "provider": "f02606",
    "region": "AS-JP",
    "long": 139.745,
    "lat": 35.6887,
    "numLocations": 2,
    "country": "JP",
    "subdiv1": "13",
    "city": "Tokyo"
  },
  "f02607": {
    "provider": "f02607",
    "region": "AS-HK",
    "long": 114.1501,
    "lat": 22.2908,
    "numLocations": 3,
    "country": "HK",
    "subdiv1": "HCW",
    "city": "Central",
    "delegate": "f068556"
  },
  "f02608": {
    "provider": "f02608",
    "region": "AS-CN-XX",
    "long": 113.722,
    "lat": 34.7732,
    "numLocations": 2,
    "country": "CN",
    "delegate": "f0222674"
  },
  "f02609": {
    "provider": "f02609",
    "region": "EU-WEST-DE",
    "long": 8.6843,
    "lat": 50.1188,
    "numLocations": 2,
    "country": "DE",
    "subdiv1": "HE",
    "city": "Frankfurt am Main"
  },
  "f02610": {
    "provider": "f02610",
    "region": "EU-WEST-NL",
    "long": 4.8995,
    "lat": 52.3824,
    "numLocations": 2,
    "country": "NL"
  },
  "f02613": {
    "provider": "f02613",
    "region": "EU-WEST-DE",
    "long": 8.6843,
    "lat": 50.1188,
    "numLocations": 2,
    "country": "DE",
    "subdiv1": "HE",
    "city": "Frankfurt am Main"
  },
  "f02614": {
    "provider": "f02614",
    "region": "AS-SG",
    "long": 103.8014,
    "lat": 1.3673,
    "numLocations": 1,
    "country": "SG"
  },
  "f02619": {
    "provider": "f02619",
    "region": "EU-WEST-DE",
    "long": 8.6843,
    "lat": 50.1188,
    "numLocations": 1,
    "country": "DE",
    "subdiv1": "HE",
    "city": "Frankfurt am Main",
    "delegate": "f02767"
  },
  "f02620": {
    "provider": "f02620",
    "region": "EU-EAST-PL",
    "long": 21.0026,
    "lat": 52.2484,
    "numLocations": 2,
    "country": "PL",
    "subdiv1": "14",
    "city": "Warsaw"
  },
  "f02621": {
    "provider": "f02621",
    "region": "AS-CN-NORTHWEST-SN",
    "long": 108.953094,
    "lat": 34.2778,
    "numLocations": 1,
    "country": "CN",
    "city": "Xi'an",
    "delegate": "f09002"
  },
  "f02622": {
    "provider": "f02622",
    "region": "AS-HK",
    "long": 113.9636,
    "lat": 22.4019,
    "numLocations": 2,
    "country": "HK",
    "subdiv1": "NTM",
    "city": "Tuen Mun San Hui"
  },
  "f02623": {
    "provider": "f02623",
    "region": "AS-CN-NORTHWEST-XJ",
    "long": 84.88118,
    "lat": 45.59433,
    "numLocations": 2,
    "country": "CN",
    "city": "Karamay"
  },
  "f02624": {
    "provider": "f02624",
    "region": "AS-CN-EAST-SH",
    "long": 121.4879,
    "lat": 31.24916,
    "numLocations": 2,
    "country": "CN",
    "city": "Shanghai",
    "delegate": "f010048"
  },
  "f02625": {
    "provider": "f02625",
    "region": "AS-CN-EAST-SH",
    "long": 121.4879,
    "lat": 31.24916,
    "numLocations": 1,
    "country": "CN",
    "city": "Shanghai"
  },
  "f02626": {
    "provider": "f02626",
    "region": "EU-WEST-DE",
    "long": 8.6843,
    "lat": 50.1188,
    "numLocations": 1,
    "country": "DE",
    "subdiv1": "HE",
    "city": "Frankfurt am Main"
  },
  "f02632": {
    "provider": "f02632",
    "region": "AS-KR",
    "long": 126.9741,
    "lat": 37.5112,
    "numLocations": 1,
    "country": "KR",
    "delegate": "f0395994"
  },
  "f02633": {
    "provider": "f02633",
    "region": "AS-CN-SOUTH-GD",
    "long": 114.02597,
    "lat": 22.546053,
    "numLocations": 3,
    "country": "CN",
    "city": "Shenzhen"
  },
  "f02645": {
    "provider": "f02645",
    "region": "AS-CN-SOUTH-GD",
    "long": 114.02597,
    "lat": 22.546053,
    "numLocations": 3,
    "country": "CN",
    "city": "Shenzhen"
  },
  "f02654": {
    "provider": "f02654",
    "region": "AS-CN-EAST-SH",
    "long": 121.4879,
    "lat": 31.24916,
    "numLocations": 2,
    "country": "CN",
    "city": "Shanghai"
  },
  "f02657": {
    "provider": "f02657",
    "region": "AS-CN-NORTH-NM",
    "long": 111.66035,
    "lat": 40.82832,
    "numLocations": 3,
    "country": "CN",
    "subdiv1": "BJ",
    "city": "Beijing",
    "delegate": "f070932"
  },
  "f02658": {
    "provider": "f02658",
    "region": "AS-CN-SOUTHCENTRAL-HN",
    "long": 112.979355,
    "lat": 28.213478,
    "numLocations": 2,
    "country": "CN",
    "city": "Changsha",
    "delegate": "f0148391"
  },
  "f02664": {
    "provider": "f02664",
    "region": "AS-CN-EAST-ZJ",
    "long": 120.219376,
    "lat": 30.259245,
    "numLocations": 1,
    "country": "CN",
    "city": "Hangzhou",
    "delegate": "f010507"
  },
  "f02665": {
    "provider": "f02665",
    "region": "EU-WEST-NL",
    "long": 4.7521,
    "lat": 52.2832,
    "numLocations": 1,
    "country": "NL",
    "subdiv1": "NH",
    "city": "Amsterdam"
  },
  "f02666": {
    "provider": "f02666",
    "region": "AS-CN-XX",
    "long": 113.722,
    "lat": 34.7732,
    "numLocations": 1,
    "country": "CN",
    "delegate": "f0225285"
  },
  "f02668": {
    "provider": "f02668",
    "region": "AS-CN-SOUTHWEST-SC",
    "long": 104.067924,
    "lat": 30.679943,
    "numLocations": 1,
    "country": "CN",
    "city": "Chengdu"
  },
  "f02721": {
    "provider": "f02721",
    "region": "NA-US-XX",
    "long": -97.822,
    "lat": 37.751,
    "numLocations": 2,
    "country": "US"
  },
  "f02723": {
    "provider": "f02723",
    "region": "AS-CN-SOUTHCENTRAL-AH",
    "long": 117.81943,
    "lat": 30.94093,
    "numLocations": 1,
    "country": "CN",
    "city": "Tongling"
  },
  "f02725": {
    "provider": "f02725",
    "region": "AS-HK",
    "long": 114.1501,
    "lat": 22.2908,
    "numLocations": 1,
    "country": "HK",
    "subdiv1": "HCW",
    "city": "Central"
  },
  "f02726": {
    "provider": "f02726",
    "region": "AS-SG",
    "long": 103.8014,
    "lat": 1.3673,
    "numLocations": 2,
    "country": "SG"
  },
  "f02731": {
    "provider": "f02731",
    "region": "AS-KR",
    "long": 126.9741,
    "lat": 37.5112,
    "numLocations": 1,
    "country": "KR"
  },
  "f02732": {
    "provider": "f02732",
    "region": "AS-SG",
    "long": 103.8014,
    "lat": 1.3673,
    "numLocations": 2,
    "country": "SG",
    "delegate": "f02726"
  },
  "f02755": {
    "provider": "f02755",
    "region": "AS-CN-EAST-ZJ",
    "long": 121.579,
    "lat": 29.88526,
    "numLocations": 1,
    "country": "CN",
    "city": "Ningbo",
    "delegate": "f01289"
  },
  "f02760": {
    "provider": "f02760",
    "region": "AS-HK",
    "long": 114.1667,
    "lat": 22.3,
    "numLocations": 2,
    "country": "HK",
    "subdiv1": "KKC",
    "city": "Tsimshatsui",
    "delegate": "f01752989"
  },
  "f02767": {
    "provider": "f02767",
    "region": "EU-WEST-DE",
    "long": 8.6843,
    "lat": 50.1188,
    "numLocations": 1,
    "country": "DE",
    "subdiv1": "HE",
    "city": "Frankfurt am Main"
  },
  "f02768": {
    "provider": "f02768",
    "region": "EU-WEST-DE",
    "long": 8.6843,
    "lat": 50.1188,
    "numLocations": 1,
    "country": "DE",
    "subdiv1": "HE",
    "city": "Frankfurt am Main",
    "delegate": "f02767"
  },
  "f02769": {
    "provider": "f02769",
    "region": "EU-WEST-DE",
    "long": 8.6843,
    "lat": 50.1188,
    "numLocations": 1,
    "country": "DE",
    "subdiv1": "HE",
    "city": "Frankfurt am Main",
    "delegate": "f02767"
  },
  "f02770": {
    "provider": "f02770",
    "region": "EU-WEST-DE",
    "long": 8.6843,
    "lat": 50.1188,
    "numLocations": 1,
    "country": "DE",
    "subdiv1": "HE",
    "city": "Frankfurt am Main",
    "delegate": "f02767"
  },
  "f02772": {
    "provider": "f02772",
    "region": "AS-CN-XX",
    "long": 113.722,
    "lat": 34.7732,
    "numLocations": 1,
    "country": "CN",
    "delegate": "f0225285"
  },
  "f02773": {
    "provider": "f02773",
    "region": "AS-CN-XX",
    "long": 113.722,
    "lat": 34.7732,
    "numLocations": 1,
    "country": "CN",
    "delegate": "f0225285"
  },
  "f02774": {
    "provider": "f02774",
    "region": "AS-HK",
    "long": 114.1667,
    "lat": 22.3,
    "numLocations": 2,
    "country": "HK",
    "subdiv1": "KKC",
    "city": "Tsimshatsui",
    "delegate": "f01752989"
  },
  "f02775": {
    "provider": "f02775",
    "region": "EU-WEST-DE",
    "long": 8.6843,
    "lat": 50.1188,
    "numLocations": 1,
    "country": "DE",
    "subdiv1": "HE",
    "city": "Frankfurt am Main",
    "delegate": "f02767"
  },
  "f02777": {
    "provider": "f02777",
    "region": "EU-WEST-DE",
    "long": 8.6843,
    "lat": 50.1188,
    "numLocations": 1,
    "country": "DE",
    "subdiv1": "HE",
    "city": "Frankfurt am Main",
    "delegate": "f02767"
  },
  "f02778": {
    "provider": "f02778",
    "region": "EU-WEST-DE",
    "long": 8.6843,
    "lat": 50.1188,
    "numLocations": 1,
    "country": "DE",
    "subdiv1": "HE",
    "city": "Frankfurt am Main",
    "delegate": "f02767"
  },
  "f02779": {
    "provider": "f02779",
    "region": "EU-WEST-DE",
    "long": 8.6843,
    "lat": 50.1188,
    "numLocations": 1,
    "country": "DE",
    "subdiv1": "HE",
    "city": "Frankfurt am Main",
    "delegate": "f02767"
  },
  "f02822": {
    "provider": "f02822",
    "region": "AS-CN-XX",
    "long": 113.722,
    "lat": 34.7732,
    "numLocations": 1,
    "country": "CN",
    "delegate": "f0225285"
  },
  "f02823": {
    "provider": "f02823",
    "region": "AS-CN-XX",
    "long": 113.722,
    "lat": 34.7732,
    "numLocations": 1,
    "country": "CN",
    "delegate": "f0225285"
  },
  "f02824": {
    "provider": "f02824",
    "region": "AS-CN-XX",
    "long": 113.722,
    "lat": 34.7732,
    "numLocations": 1,
    "country": "CN",
    "delegate": "f0225285"
  },
  "f02838": {
    "provider": "f02838",
    "region": "AS-CN-SOUTHWEST-SC",
    "long": 104.067924,
    "lat": 30.679943,
    "numLocations": 1,
    "country": "CN",
    "city": "Chengdu"
  },
  "f02856": {
    "provider": "f02856",
    "region": "AS-CN-SOUTHWEST-SC",
    "long": 104.067924,
    "lat": 30.679943,
    "numLocations": 1,
    "country": "CN",
    "city": "Chengdu",
    "delegate": "f02838"
  },
  "f03000": {
    "provider": "f03000",
    "region": "AS-CN-XX",
    "long": 113.722,
    "lat": 34.7732,
    "numLocations": 2,
    "country": "CN"
  },
  "f03002": {
    "provider": "f03002",
    "region": "AS-CN-SOUTHWEST-CQ",
    "long": 106.53063,
    "lat": 29.544605,
    "numLocations": 2,
    "country": "CN",
    "city": "Chongqing"
  },
  "f03021": {
    "provider": "f03021",
    "region": "AS-CN-NORTH-SD",
    "long": 121.309555,
    "lat": 37.53656,
    "numLocations": 1,
    "country": "CN",
    "city": "Yantai",
    "delegate": "f010247"
  },
  "f03120": {
    "provider": "f03120",
    "region": "AS-KR",
    "long": 127.2383,
    "lat": 37.6675,
    "numLocations": 1,
    "country": "KR",
    "subdiv1": "41",
    "city": "Namyangju",
    "delegate": "f01475317"
  },
  "f03131": {
    "provider": "f03131",
    "region": "AS-CN-NORTHEAST-JL",
    "long": 125.3247,
    "lat": 43.88,
    "numLocations": 2,
    "country": "CN",
    "subdiv1": "JL",
    "city": "Changchun",
    "delegate": "f01184941"
  },
  "f03134": {
    "provider": "f03134",
    "region": "AS-CN-NORTH-TJ",
    "long": 117.210815,
    "lat": 39.14393,
    "numLocations": 1,
    "country": "CN",
    "city": "Tianjin"
  },
  "f03136": {
    "provider": "f03136",
    "region": "AS-CN-SOUTHCENTRAL-JX",
    "long": 114.40004,
    "lat": 27.81113,
    "numLocations": 2,
    "country": "CN",
    "city": "Yichun",
    "delegate": "f0874231"
  },
  "f03140": {
    "provider": "f03140",
    "region": "AS-SG",
    "long": 103.8014,
    "lat": 1.3673,
    "numLocations": 2,
    "country": "SG",
    "delegate": "f02726"
  },
  "f03143": {
    "provider": "f03143",
    "region": "AS-CN-NORTH-HE",
    "long": 114.52153,
    "lat": 38.048313,
    "numLocations": 4,
    "country": "CN",
    "city": "Shijiazhuang"
  },
  "f03144": {
    "provider": "f03144",
    "region": "AS-HK",
    "long": 114.1657,
    "lat": 22.2578,
    "numLocations": 1,
    "country": "HK"
  },
  "f03149": {
    "provider": "f03149",
    "region": "AS-CN-NORTH-BJ",
    "long": 116.40388,
    "lat": 39.91489,
    "numLocations": 2,
    "country": "CN",
    "city": "Beijing",
    "delegate": "f0470972"
  },
  "f03176": {
    "provider": "f03176",
    "region": "NA-US-WEST-CA",
    "long": -122.33,
    "lat": 37.5517,
    "numLocations": 1,
    "country": "US",
    "subdiv1": "CA",
    "city": "San Mateo"
  },
  "f03194": {
    "provider": "f03194",
    "region": "AS-CN-SOUTHWEST-CQ",
    "long": 106.53063,
    "lat": 29.544605,
    "numLocations": 1,
    "country": "CN",
    "city": "Chongqing",
    "delegate": "f060072"
  },
  "f03220": {
    "provider": "f03220",
    "region": "EU-WEST-DE",
    "long": 8.6843,
    "lat": 50.1188,
    "numLocations": 1,
    "country": "DE",
    "subdiv1": "HE",
    "city": "Frankfurt am Main",
    "delegate": "f015848"
  },
  "f03222": {
    "provider": "f03222",
    "region": "AS-CN-NORTH-HA",
    "long": 115.641884,
    "lat": 34.438587,
    "numLocations": 1,
    "country": "CN",
    "delegate": "f010305"
  },
  "f03223": {
    "provider": "f03223",
    "region": "NA-US-NORTHEAST-NJ",
    "long": -74.1403,
    "lat": 40.8364,
    "numLocations": 2,
    "country": "US",
    "subdiv1": "NJ",
    "city": "Clifton"
  },
  "f03224": {
    "provider": "f03224",
    "region": "EU-EAST-UA",
    "long": 30.5303,
    "lat": 50.458,
    "numLocations": 1,
    "country": "UA",
    "subdiv1": "30",
    "city": "Kyiv"
  },
  "f03225": {
    "provider": "f03225",
    "region": "AS-HK",
    "long": 114.1657,
    "lat": 22.2578,
    "numLocations": 1,
    "country": "HK",
    "delegate": "f01098271"
  },
  "f03245": {
    "provider": "f03245",
    "region": "EU-EAST-RU",
    "long": 135.083,
    "lat": 48.4817,
    "numLocations": 3,
    "country": "RU",
    "subdiv1": "KHA",
    "city": "Khabarovsk",
    "delegate": "f015767"
  },
  "f03249": {
    "provider": "f03249",
    "region": "AS-CN-SOUTH-GD",
    "long": 112.05095,
    "lat": 22.937975,
    "numLocations": 1,
    "country": "CN",
    "city": "Yunfu"
  },
  "f03264": {
    "provider": "f03264",
    "region": "EU-WEST-DE",
    "long": 8.6843,
    "lat": 50.1188,
    "numLocations": 1,
    "country": "DE",
    "subdiv1": "HE",
    "city": "Frankfurt am Main",
    "delegate": "f02767"
  },
  "f03266": {
    "provider": "f03266",
    "region": "SA-XX",
    "long": -43.2192,
    "lat": -22.8305,
    "numLocations": 2,
    "country": "BR"
  },
  "f03269": {
    "provider": "f03269",
    "region": "OC-AU",
    "long": 143.2104,
    "lat": -33.494,
    "numLocations": 1,
    "country": "AU"
  },
  "f03273": {
    "provider": "f03273",
    "region": "AS-HK",
    "long": 113.9636,
    "lat": 22.4019,
    "numLocations": 2,
    "country": "HK",
    "subdiv1": "NTM",
    "city": "Tuen Mun San Hui"
  },
  "f03274": {
    "provider": "f03274",
    "region": "AS-CN-NORTHWEST-XJ",
    "long": 84.88118,
    "lat": 45.59433,
    "numLocations": 2,
    "country": "CN",
    "city": "Karamay"
  },
  "f03275": {
    "provider": "f03275",
    "region": "AS-CN-NORTHWEST-XJ",
    "long": 84.88118,
    "lat": 45.59433,
    "numLocations": 2,
    "country": "CN",
    "city": "Karamay"
  },
  "f03276": {
    "provider": "f03276",
    "region": "AS-CN-XX",
    "long": 113.75842,
    "lat": 23.027308,
    "numLocations": 5,
    "country": "CN",
    "city": "Dongguan",
    "delegate": "f014395"
  },
  "f03287": {
    "provider": "f03287",
    "region": "NA-US-XX",
    "long": -97.822,
    "lat": 37.751,
    "numLocations": 2,
    "country": "US"
  },
  "f03302": {
    "provider": "f03302",
    "region": "AS-CN-NORTHWEST-XJ",
    "long": 84.88118,
    "lat": 45.59433,
    "numLocations": 1,
    "country": "CN",
    "city": "Karamay",
    "delegate": "f01241"
  },
  "f03305": {
    "provider": "f03305",
    "region": "SA-XX",
    "long": -57.9489,
    "lat": -34.9314,
    "numLocations": 2,
    "country": "AR",
    "subdiv1": "B",
    "city": "La Plata",
    "delegate": "f0517213"
  },
  "f03306": {
    "provider": "f03306",
    "region": "NA-US-XX",
    "long": -97.822,
    "lat": 37.751,
    "numLocations": 2,
    "country": "US",
    "delegate": "f01137150"
  },
  "f03307": {
    "provider": "f03307",
    "region": "EU-WEST-DE",
    "long": 8.6843,
    "lat": 50.1188,
    "numLocations": 1,
    "country": "DE",
    "subdiv1": "HE",
    "city": "Frankfurt am Main",
    "delegate": "f02767"
  },
  "f03312": {
    "provider": "f03312",
    "region": "AS-CN-EAST-SH",
    "long": 121.4879,
    "lat": 31.24916,
    "numLocations": 2,
    "country": "CN",
    "city": "Shanghai",
    "delegate": "f0488888"
  },
  "f03314": {
    "provider": "f03314",
    "region": "AS-CN-SOUTH-GD",
    "long": 114.02597,
    "lat": 22.546053,
    "numLocations": 1,
    "country": "CN",
    "city": "Shenzhen",
    "delegate": "f020398"
  },
  "f03317": {
    "provider": "f03317",
    "region": "AS-HK",
    "long": 114.1657,
    "lat": 22.2578,
    "numLocations": 2,
    "country": "HK",
    "delegate": "f022093"
  },
  "f03319": {
    "provider": "f03319",
    "region": "AS-CN-NORTH-SD",
    "long": 118.527664,
    "lat": 36.09929,
    "numLocations": 1,
    "country": "CN",
    "city": "Shandong",
    "delegate": "f0144313"
  },
  "f03320": {
    "provider": "f03320",
    "region": "AS-CN-NORTH-SD",
    "long": 118.527664,
    "lat": 36.09929,
    "numLocations": 1,
    "country": "CN",
    "city": "Shandong",
    "delegate": "f0144313"
  },
  "f03325": {
    "provider": "f03325",
    "region": "NA-US-WEST-CA",
    "long": -121.8914,
    "lat": 37.3387,
    "numLocations": 2,
    "country": "US",
    "subdiv1": "CA",
    "city": "San Jose"
  },
  "f03326": {
    "provider": "f03326",
    "region": "AS-CN-XX",
    "long": 113.722,
    "lat": 34.7732,
    "numLocations": 1,
    "country": "CN",
    "delegate": "f0225285"
  },
  "f03327": {
    "provider": "f03327",
    "region": "NA-US-WEST-WA",
    "long": -122.3004,
    "lat": 47.4902,
    "numLocations": 1,
    "country": "US",
    "subdiv1": "WA",
    "city": "Seattle",
    "delegate": "f03519"
  },
  "f03328": {
    "provider": "f03328",
    "region": "AS-CN-NORTH-HA",
    "long": 113.91269,
    "lat": 35.30726,
    "numLocations": 1,
    "country": "CN",
    "city": "Xinxiang"
  },
  "f03337": {
    "provider": "f03337",
    "region": "AS-CN-EAST-FJ",
    "long": 118.600365,
    "lat": 24.901653,
    "numLocations": 1,
    "country": "CN",
    "city": "Quanzhou",
    "delegate": "f022111"
  },
  "f03339": {
    "provider": "f03339",
    "region": "AS-CN-EAST-SH",
    "long": 119.11977,
    "lat": 33.556667,
    "numLocations": 5,
    "country": "CN",
    "subdiv1": "SH",
    "city": "Shanghai"
  },
  "f03340": {
    "provider": "f03340",
    "region": "AS-CN-NORTHWEST-SN",
    "long": 108.953094,
    "lat": 34.2778,
    "numLocations": 2,
    "country": "CN",
    "city": "Xi'an",
    "delegate": "f083903"
  },
  "f03341": {
    "provider": "f03341",
    "region": "AS-CN-NORTH-NM",
    "long": 114.41587,
    "lat": 43.46824,
    "numLocations": 1,
    "country": "CN",
    "city": "Inner Mongolia",
    "delegate": "f03364"
  },
  "f03344": {
    "provider": "f03344",
    "region": "AS-CN-XX",
    "long": 114.06455,
    "lat": 22.548456,
    "numLocations": 1,
    "country": "CN",
    "city": "Shenzhen",
    "delegate": "f092165"
  },
  "f03345": {
    "provider": "f03345",
    "region": "AS-CN-EAST-FJ",
    "long": 119.33022,
    "lat": 26.047125,
    "numLocations": 1,
    "country": "CN",
    "city": "Fuzhou"
  },
  "f03346": {
    "provider": "f03346",
    "region": "AS-CN-EAST-ZJ",
    "long": 120.76043,
    "lat": 30.773993,
    "numLocations": 1,
    "country": "CN",
    "city": "Jiaxing",
    "delegate": "f01240603"
  },
  "f03347": {
    "provider": "f03347",
    "region": "AS-CN-NORTHEAST-JL",
    "long": 125.313644,
    "lat": 43.89834,
    "numLocations": 5,
    "country": "CN",
    "city": "Changchun"
  },
  "f03350": {
    "provider": "f03350",
    "region": "AS-CN-NORTH-SD",
    "long": 118.527664,
    "lat": 36.09929,
    "numLocations": 1,
    "country": "CN",
    "city": "Shandong",
    "delegate": "f0144313"
  },
  "f03351": {
    "provider": "f03351",
    "region": "EU-WEST-DE",
    "long": 8.6843,
    "lat": 50.1188,
    "numLocations": 1,
    "country": "DE",
    "subdiv1": "HE",
    "city": "Frankfurt am Main",
    "delegate": "f02767"
  },
  "f03358": {
    "provider": "f03358",
    "region": "AS-CN-NORTHEAST-HL",
    "long": 109.993706,
    "lat": 39.81649,
    "numLocations": 1,
    "country": "CN",
    "city": "Ordos"
  },
  "f03359": {
    "provider": "f03359",
    "region": "AS-CN-NORTH-TJ",
    "long": 117.210815,
    "lat": 39.14393,
    "numLocations": 1,
    "country": "CN",
    "city": "Tianjin",
    "delegate": "f01132656"
  },
  "f03361": {
    "provider": "f03361",
    "region": "EU-WEST-DE",
    "long": 8.6843,
    "lat": 50.1188,
    "numLocations": 1,
    "country": "DE",
    "subdiv1": "HE",
    "city": "Frankfurt am Main",
    "delegate": "f02767"
  },
  "f03362": {
    "provider": "f03362",
    "region": "EU-WEST-DE",
    "long": 9.491,
    "lat": 51.2993,
    "numLocations": 1,
    "country": "DE"
  },
  "f03363": {
    "provider": "f03363",
    "region": "AS-CN-NORTHEAST-HL",
    "long": 109.993706,
    "lat": 39.81649,
    "numLocations": 1,
    "country": "CN",
    "city": "Ordos"
  },
  "f03364": {
    "provider": "f03364",
    "region": "AS-CN-NORTH-NM",
    "long": 114.41587,
    "lat": 43.46824,
    "numLocations": 1,
    "country": "CN",
    "city": "Inner Mongolia"
  },
  "f03365": {
    "provider": "f03365",
    "region": "AS-CN-NORTH-HA",
    "long": 113.4868,
    "lat": 34.157185,
    "numLocations": 2,
    "country": "CN",
    "city": "Henan",
    "delegate": "f01154827"
  },
  "f03366": {
    "provider": "f03366",
    "region": "AS-CN-NORTHEAST-HL",
    "long": 122.048164,
    "lat": 46.083755,
    "numLocations": 1,
    "country": "CN",
    "subdiv1": "HL",
    "city": "Dongsheng",
    "delegate": "f0440919"
  },
  "f03367": {
    "provider": "f03367",
    "region": "EU-SOUTH-IT",
    "long": 8.95,
    "lat": 44.4071,
    "numLocations": 2,
    "country": "IT",
    "subdiv1": "42",
    "city": "Genoa"
  },
  "f03427": {
    "provider": "f03427",
    "region": "AS-SG",
    "long": 103.8014,
    "lat": 1.3673,
    "numLocations": 2,
    "country": "SG",
    "delegate": "f01168661"
  },
  "f03428": {
    "provider": "f03428",
    "region": "AS-CN-XX",
    "long": 119.653435,
    "lat": 29.084639,
    "numLocations": 1,
    "country": "CN",
    "city": "Jinhua",
    "delegate": "f085435"
  },
  "f03482": {
    "provider": "f03482",
    "region": "AS-CN-EAST-JS",
    "long": 120.30546,
    "lat": 31.570038,
    "numLocations": 1,
    "country": "CN",
    "city": "Wuxi"
  },
  "f03484": {
    "provider": "f03484",
    "region": "EU-WEST-DE",
    "long": 8.6843,
    "lat": 50.1188,
    "numLocations": 1,
    "country": "DE",
    "subdiv1": "HE",
    "city": "Frankfurt am Main",
    "delegate": "f089228"
  },
  "f03485": {
    "provider": "f03485",
    "region": "AS-CN-EAST-ZJ",
    "long": 120.219376,
    "lat": 30.259245,
    "numLocations": 1,
    "country": "CN",
    "city": "Hangzhou",
    "delegate": "f0746945"
  },
  "f03487": {
    "provider": "f03487",
    "region": "AS-CN-SOUTHWEST-SC",
    "long": 104.63302,
    "lat": 28.769674,
    "numLocations": 1,
    "country": "CN",
    "city": "Yibin",
    "delegate": "f065200"
  },
  "f03488": {
    "provider": "f03488",
    "region": "AS-KR",
    "long": 126.9864,
    "lat": 37.5944,
    "numLocations": 1,
    "country": "KR",
    "subdiv1": "11",
    "city": "Seoul"
  },
  "f03490": {
    "provider": "f03490",
    "region": "AS-CN-SOUTH-GD",
    "long": 113.75842,
    "lat": 23.027308,
    "numLocations": 5,
    "country": "CN",
    "city": "Dongguan",
    "delegate": "f01261075"
  },
  "f03491": {
    "provider": "f03491",
    "region": "AS-CN-SOUTH-GD",
    "long": 114.02597,
    "lat": 22.546053,
    "numLocations": 3,
    "country": "CN",
    "city": "Shenzhen"
  },
  "f03512": {
    "provider": "f03512",
    "region": "AS-CN-SOUTH-GD",
    "long": 113.39482,
    "lat": 23.408003,
    "numLocations": 1,
    "country": "CN",
    "city": "Guangdong",
    "delegate": "f0432345"
  },
  "f03515": {
    "provider": "f03515",
    "region": "AS-CN-EAST-SH",
    "long": 121.4879,
    "lat": 31.24916,
    "numLocations": 2,
    "country": "CN",
    "city": "Shanghai",
    "delegate": "f0152337"
  },
  "f03517": {
    "provider": "f03517",
    "region": "AS-CN-EAST-ZJ",
    "long": 120.219376,
    "lat": 30.259245,
    "numLocations": 1,
    "country": "CN",
    "city": "Hangzhou",
    "delegate": "f0746945"
  },
  "f03519": {
    "provider": "f03519",
    "region": "NA-US-WEST-WA",
    "long": -122.3004,
    "lat": 47.4902,
    "numLocations": 1,
    "country": "US",
    "subdiv1": "WA",
    "city": "Seattle"
  },
  "f03523": {
    "provider": "f03523",
    "region": "AS-CN-EAST-ZJ",
    "long": 120.219376,
    "lat": 30.259245,
    "numLocations": 1,
    "country": "CN",
    "city": "Hangzhou",
    "delegate": "f0676048"
  },
  "f03544": {
    "provider": "f03544",
    "region": "AS-HK",
    "long": 114.1657,
    "lat": 22.2578,
    "numLocations": 2,
    "country": "HK",
    "delegate": "f0432329"
  },
  "f03548": {
    "provider": "f03548",
    "region": "AS-CN-NORTH-BJ",
    "long": 116.40388,
    "lat": 39.91489,
    "numLocations": 1,
    "country": "CN",
    "city": "Beijing",
    "delegate": "f0131331"
  },
  "f03619": {
    "provider": "f03619",
    "region": "AS-CN-EAST-FJ",
    "long": 118.0819,
    "lat": 24.4798,
    "numLocations": 4,
    "country": "CN",
    "subdiv1": "FJ",
    "city": "Xiamen",
    "delegate": "f020747"
  },
  "f03620": {
    "provider": "f03620",
    "region": "AS-HK",
    "long": 114.1657,
    "lat": 22.2578,
    "numLocations": 3,
    "country": "HK",
    "delegate": "f062811"
  },
  "f03622": {
    "provider": "f03622",
    "region": "AS-HK",
    "long": 114.1657,
    "lat": 22.2578,
    "numLocations": 1,
    "country": "HK",
    "delegate": "f01198583"
  },
  "f03624": {
    "provider": "f03624",
    "region": "EU-WEST-DE",
    "long": 11.5683,
    "lat": 48.1663,
    "numLocations": 1,
    "country": "DE",
    "subdiv1": "BY",
    "city": "Munich"
  },
  "f03630": {
    "provider": "f03630",
    "region": "AS-CN-EAST-ZJ",
    "long": 119.9572,
    "lat": 29.159494,
    "numLocations": 1,
    "country": "CN",
    "city": "Zhejiang",
    "delegate": "f0219106"
  },
  "f03638": {
    "provider": "f03638",
    "region": "NA-US-XX",
    "long": -97.822,
    "lat": 37.751,
    "numLocations": 1,
    "country": "US",
    "delegate": "f014415"
  },
  "f03646": {
    "provider": "f03646",
    "region": "AS-CN-SOUTHWEST-SC",
    "long": 104.68556,
    "lat": 31.473663,
    "numLocations": 2,
    "country": "CN",
    "city": "Mianyang",
    "delegate": "f0161916"
  },
  "f03702": {
    "provider": "f03702",
    "region": "NA-US-WEST-CA",
    "long": -121.8896,
    "lat": 37.3322,
    "numLocations": 1,
    "country": "US",
    "subdiv1": "CA",
    "city": "San Jose",
    "delegate": "f01828096"
  },
  "f03764": {
    "provider": "f03764",
    "region": "AS-CN-NORTH-BJ",
    "long": 116.40388,
    "lat": 39.91489,
    "numLocations": 1,
    "country": "CN",
    "city": "Beijing",
    "delegate": "f020436"
  },
  "f03765": {
    "provider": "f03765",
    "region": "AS-SG",
    "long": 103.8014,
    "lat": 1.3673,
    "numLocations": 1,
    "country": "SG",
    "delegate": "f09037"
  },
  "f04443": {
    "provider": "f04443",
    "region": "AS-CN-EAST-SH",
    "long": 121.4879,
    "lat": 31.24916,
    "numLocations": 1,
    "country": "CN",
    "city": "Shanghai"
  },
  "f04444": {
    "provider": "f04444",
    "region": "AS-CN-EAST-FJ",
    "long": 118.0819,
    "lat": 24.4798,
    "numLocations": 12,
    "country": "CN",
    "subdiv1": "FJ",
    "city": "Xiamen",
    "delegate": "f0495421"
  },
  "f05315": {
    "provider": "f05315",
    "region": "AS-HK",
    "long": 113.9636,
    "lat": 22.4019,
    "numLocations": 2,
    "country": "HK",
    "subdiv1": "NTM",
    "city": "Tuen Mun San Hui"
  },
  "f05316": {
    "provider": "f05316",
    "region": "AS-HK",
    "long": 113.9636,
    "lat": 22.4019,
    "numLocations": 2,
    "country": "HK",
    "subdiv1": "NTM",
    "city": "Tuen Mun San Hui"
  },
  "f05317": {
    "provider": "f05317",
    "region": "AS-CN-NORTHWEST-XJ",
    "long": 84.88118,
    "lat": 45.59433,
    "numLocations": 2,
    "country": "CN",
    "city": "Karamay"
  },
  "f05664": {
    "provider": "f05664",
    "region": "AS-HK",
    "long": 114.1657,
    "lat": 22.2578,
    "numLocations": 1,
    "country": "HK"
  },
  "f06262": {
    "provider": "f06262",
    "region": "AS-CN-SOUTHWEST-SC",
    "long": 104.067924,
    "lat": 30.679943,
    "numLocations": 3,
    "country": "CN",
    "city": "Chengdu",
    "delegate": "f021075"
  },
  "f06775": {
    "provider": "f06775",
    "region": "AS-CN-SOUTH-GD",
    "long": 114.02597,
    "lat": 22.546053,
    "numLocations": 1,
    "country": "CN",
    "city": "Shenzhen",
    "delegate": "f024468"
  },
  "f07709": {
    "provider": "f07709",
    "region": "AS-KR",
    "long": 126.9156,
    "lat": 35.1496,
    "numLocations": 1,
    "country": "KR",
    "subdiv1": "29",
    "city": "Gwangju"
  },
  "f07710": {
    "provider": "f07710",
    "region": "AS-CN-EAST-ZJ",
    "long": 120.219376,
    "lat": 30.259245,
    "numLocations": 1,
    "country": "CN",
    "city": "Hangzhou",
    "delegate": "f0746945"
  },
  "f07717": {
    "provider": "f07717",
    "region": "AS-CN-NORTHEAST-LN",
    "long": 123.43279,
    "lat": 41.808643,
    "numLocations": 1,
    "country": "CN",
    "city": "Shenyang",
    "delegate": "f017665"
  },
  "f07731": {
    "provider": "f07731",
    "region": "AS-CN-SOUTHWEST-SC",
    "long": 104.067924,
    "lat": 30.679943,
    "numLocations": 1,
    "country": "CN",
    "city": "Chengdu",
    "delegate": "f099949"
  },
  "f07749": {
    "provider": "f07749",
    "region": "AS-CN-SOUTH-GD",
    "long": 113.078125,
    "lat": 22.575117,
    "numLocations": 3,
    "country": "CN",
    "city": "Jiangmen",
    "delegate": "f019354"
  },
  "f07752": {
    "provider": "f07752",
    "region": "AS-SG",
    "long": 103.8014,
    "lat": 1.3673,
    "numLocations": 1,
    "country": "SG",
    "delegate": "f021547"
  },
  "f07756": {
    "provider": "f07756",
    "region": "NA-US-WEST-WA",
    "long": -122.1961,
    "lat": 47.7229,
    "numLocations": 2,
    "country": "US",
    "subdiv1": "WA",
    "city": "Kirkland",
    "delegate": "f010088"
  },
  "f07772": {
    "provider": "f07772",
    "region": "AS-KR",
    "long": 127.2383,
    "lat": 37.6675,
    "numLocations": 1,
    "country": "KR",
    "subdiv1": "41",
    "city": "Namyangju",
    "delegate": "f01475317"
  },
  "f07774": {
    "provider": "f07774",
    "region": "AS-CN-SOUTH-GD",
    "long": 114.02597,
    "lat": 22.546053,
    "numLocations": 1,
    "country": "CN",
    "city": "Shenzhen",
    "delegate": "f034581"
  },
  "f07775": {
    "provider": "f07775",
    "region": "AS-CN-SOUTH-GD",
    "long": 113.39482,
    "lat": 23.408003,
    "numLocations": 2,
    "country": "CN",
    "city": "Guangdong",
    "delegate": "f023013"
  },
  "f07796": {
    "provider": "f07796",
    "region": "AS-CN-SOUTHCENTRAL-HB",
    "long": 112.94547,
    "lat": 28.23489,
    "numLocations": 1,
    "country": "CN",
    "city": "Changsha",
    "delegate": "f0143110"
  },
  "f07806": {
    "provider": "f07806",
    "region": "AS-CN-EAST-JS",
    "long": 120.6199,
    "lat": 31.317987,
    "numLocations": 2,
    "country": "CN",
    "city": "Suzhou",
    "delegate": "f058000"
  },
  "f07810": {
    "provider": "f07810",
    "region": "AS-HK",
    "long": 114.1501,
    "lat": 22.2908,
    "numLocations": 3,
    "country": "HK",
    "subdiv1": "HCW",
    "city": "Central",
    "delegate": "f068556"
  },
  "f07819": {
    "provider": "f07819",
    "region": "AS-CN-EAST-JS",
    "long": 120.30546,
    "lat": 31.570038,
    "numLocations": 1,
    "country": "CN",
    "city": "Wuxi"
  },
  "f07824": {
    "provider": "f07824",
    "region": "AS-CN-EAST-FJ",
    "long": 118.600365,
    "lat": 24.901653,
    "numLocations": 1,
    "country": "CN",
    "city": "Quanzhou",
    "delegate": "f022111"
  },
  "f07826": {
    "provider": "f07826",
    "region": "AS-CN-NORTH-BJ",
    "long": 114.06455,
    "lat": 22.548456,
    "numLocations": 4,
    "country": "CN",
    "city": "Shenzhen",
    "delegate": "f010491"
  },
  "f07827": {
    "provider": "f07827",
    "region": "AS-HK",
    "long": 114.1657,
    "lat": 22.2578,
    "numLocations": 1,
    "country": "HK",
    "delegate": "f01657163"
  },
  "f07829": {
    "provider": "f07829",
    "region": "EU-EAST-RU",
    "long": 135.083,
    "lat": 48.4817,
    "numLocations": 3,
    "country": "RU",
    "subdiv1": "KHA",
    "city": "Khabarovsk",
    "delegate": "f014392"
  },
  "f07830": {
    "provider": "f07830",
    "region": "AS-CN-SOUTH-GD",
    "long": 113.42206,
    "lat": 22.545177,
    "numLocations": 2,
    "country": "CN",
    "city": "Zhongshan"
  },
  "f07833": {
    "provider": "f07833",
    "region": "AS-CN-EAST-JS",
    "long": 119.36849,
    "lat": 33.013798,
    "numLocations": 3,
    "country": "CN",
    "city": "Jiangsu",
    "delegate": "f010010"
  },
  "f07840": {
    "provider": "f07840",
    "region": "EU-WEST-DE",
    "long": 8.6843,
    "lat": 50.1188,
    "numLocations": 1,
    "country": "DE",
    "subdiv1": "HE",
    "city": "Frankfurt am Main",
    "delegate": "f02767"
  },
  "f07843": {
    "provider": "f07843",
    "region": "AS-CN-NORTH-BJ",
    "long": 116.40388,
    "lat": 39.91489,
    "numLocations": 1,
    "country": "CN",
    "city": "Beijing",
    "delegate": "f01104018"
  },
  "f07848": {
    "provider": "f07848",
    "region": "AS-CN-EAST-JS",
    "long": 120.6199,
    "lat": 31.317987,
    "numLocations": 2,
    "country": "CN",
    "city": "Suzhou",
    "delegate": "f058000"
  },
  "f07850": {
    "provider": "f07850",
    "region": "AS-HK",
    "long": 113.9636,
    "lat": 22.4019,
    "numLocations": 2,
    "country": "HK",
    "subdiv1": "NTM",
    "city": "Tuen Mun San Hui"
  },
  "f07851": {
    "provider": "f07851",
    "region": "AS-CN-SOUTHWEST-SC",
    "long": 102.89916,
    "lat": 30.367481,
    "numLocations": 1,
    "country": "CN",
    "city": "Sichuan",
    "delegate": "f01279"
  },
  "f07861": {
    "provider": "f07861",
    "region": "AS-HK",
    "long": 113.9636,
    "lat": 22.4019,
    "numLocations": 2,
    "country": "HK",
    "subdiv1": "NTM",
    "city": "Tuen Mun San Hui",
    "delegate": "f01097836"
  },
  "f07866": {
    "provider": "f07866",
    "region": "AS-SG",
    "long": 103.8547,
    "lat": 1.2929,
    "numLocations": 2,
    "country": "SG",
    "city": "Singapore",
    "delegate": "f01372912"
  },
  "f07919": {
    "provider": "f07919",
    "region": "AS-CN-SOUTHCENTRAL-HN",
    "long": 112.979355,
    "lat": 28.213478,
    "numLocations": 4,
    "country": "CN",
    "city": "Changsha"
  },
  "f07924": {
    "provider": "f07924",
    "region": "NA-US-XX",
    "long": -97.822,
    "lat": 37.751,
    "numLocations": 1,
    "country": "US",
    "delegate": "f01848682"
  },
  "f07931": {
    "provider": "f07931",
    "region": "AS-CN-NORTHEAST-JL",
    "long": 125.313644,
    "lat": 43.89834,
    "numLocations": 1,
    "country": "CN",
    "city": "Changchun",
    "delegate": "f0485876"
  },
  "f07944": {
    "provider": "f07944",
    "region": "AS-HK",
    "long": 114.1657,
    "lat": 22.2578,
    "numLocations": 1,
    "country": "HK",
    "delegate": "f01657163"
  },
  "f07945": {
    "provider": "f07945",
    "region": "AS-CN-SOUTH-GD",
    "long": 113.30765,
    "lat": 23.120049,
    "numLocations": 1,
    "country": "CN",
    "city": "Guangzhou"
  },
  "f07956": {
    "provider": "f07956",
    "region": "AS-CN-SOUTH-GD",
    "long": 113.763435,
    "lat": 23.043024,
    "numLocations": 1,
    "country": "CN",
    "city": "Dongguan",
    "delegate": "f086151"
  },
  "f07959": {
    "provider": "f07959",
    "region": "AS-CN-SOUTHWEST-SC",
    "long": 102.89916,
    "lat": 30.367481,
    "numLocations": 1,
    "country": "CN",
    "city": "Sichuan",
    "delegate": "f01279"
  },
  "f07961": {
    "provider": "f07961",
    "region": "AS-CN-EAST-ZJ",
    "long": 121.579,
    "lat": 29.88526,
    "numLocations": 1,
    "country": "CN",
    "city": "Ningbo",
    "delegate": "f01289"
  },
  "f07964": {
    "provider": "f07964",
    "region": "AS-HK",
    "long": 114.1501,
    "lat": 22.2908,
    "numLocations": 1,
    "country": "HK",
    "subdiv1": "HCW",
    "delegate": "f01111112"
  },
  "f07969": {
    "provider": "f07969",
    "region": "AS-CN-EAST-ZJ",
    "long": 120.219376,
    "lat": 30.259245,
    "numLocations": 1,
    "country": "CN",
    "city": "Hangzhou"
  },
  "f07982": {
    "provider": "f07982",
    "region": "AS-KR",
    "long": 127.2383,
    "lat": 37.6675,
    "numLocations": 1,
    "country": "KR",
    "subdiv1": "41",
    "city": "Namyangju",
    "delegate": "f0214334"
  },
  "f07987": {
    "provider": "f07987",
    "region": "AS-CN-NORTH-BJ",
    "long": 116.385,
    "lat": 39.9285,
    "numLocations": 2,
    "country": "CN",
    "subdiv1": "BJ",
    "city": "Beijing",
    "delegate": "f020330"
  },
  "f07990": {
    "provider": "f07990",
    "region": "AS-CN-SOUTH-GD",
    "long": 114.02597,
    "lat": 22.546053,
    "numLocations": 3,
    "country": "CN",
    "city": "Shenzhen"
  },
  "f07991": {
    "provider": "f07991",
    "region": "AS-CN-SOUTHCENTRAL-HN",
    "long": 112.94547,
    "lat": 28.23489,
    "numLocations": 2,
    "country": "CN",
    "city": "Changsha",
    "delegate": "f01128462"
  },
  "f07998": {
    "provider": "f07998",
    "region": "AS-CN-SOUTHCENTRAL-HB",
    "long": 112.41056,
    "lat": 31.209316,
    "numLocations": 2,
    "country": "CN",
    "subdiv1": "HB",
    "city": "Wuhan"
  },
  "f08006": {
    "provider": "f08006",
    "region": "AS-HK",
    "long": 114.1657,
    "lat": 22.2578,
    "numLocations": 1,
    "country": "HK",
    "delegate": "f01344987"
  },
  "f08011": {
    "provider": "f08011",
    "region": "AS-CN-NORTHWEST-XJ",
    "long": 84.88118,
    "lat": 45.59433,
    "numLocations": 2,
    "country": "CN",
    "city": "Karamay",
    "delegate": "f0673645"
  },
  "f08019": {
    "provider": "f08019",
    "region": "AS-CN-NORTH-SD",
    "long": 121.309555,
    "lat": 37.53656,
    "numLocations": 1,
    "country": "CN",
    "city": "Yantai"
  },
  "f08022": {
    "provider": "f08022",
    "region": "AS-CN-EAST-SH",
    "long": 121.4879,
    "lat": 31.24916,
    "numLocations": 1,
    "country": "CN",
    "city": "Shanghai",
    "delegate": "f01155"
  },
  "f08025": {
    "provider": "f08025",
    "region": "AS-HK",
    "long": 114.1501,
    "lat": 22.2908,
    "numLocations": 3,
    "country": "HK",
    "subdiv1": "HCW",
    "city": "Central"
  },
  "f08032": {
    "provider": "f08032",
    "region": "AS-CN-NORTH-SD",
    "long": 119.14263,
    "lat": 36.716114,
    "numLocations": 1,
    "country": "CN",
    "city": "Weifang",
    "delegate": "f09620"
  },
  "f08040": {
    "provider": "f08040",
    "region": "AS-HK",
    "long": 114.1657,
    "lat": 22.2578,
    "numLocations": 1,
    "country": "HK",
    "delegate": "f01198583"
  },
  "f08042": {
    "provider": "f08042",
    "region": "AS-CN-EAST-SH",
    "long": 121.4879,
    "lat": 31.24916,
    "numLocations": 1,
    "country": "CN",
    "city": "Shanghai",
    "delegate": "f01104909"
  },
  "f08047": {
    "provider": "f08047",
    "region": "EU-WEST-DE",
    "long": 8.6843,
    "lat": 50.1188,
    "numLocations": 1,
    "country": "DE",
    "subdiv1": "HE",
    "city": "Frankfurt am Main",
    "delegate": "f089228"
  },
  "f08053": {
    "provider": "f08053",
    "region": "AS-CN-EAST-FJ",
    "long": 117.98494,
    "lat": 26.050117,
    "numLocations": 1,
    "country": "CN",
    "city": "Fujian",
    "delegate": "f01209022"
  },
  "f08061": {
    "provider": "f08061",
    "region": "AS-CN-NORTH-SD",
    "long": 118.527664,
    "lat": 36.09929,
    "numLocations": 1,
    "country": "CN",
    "city": "Shandong",
    "delegate": "f0144313"
  },
  "f08063": {
    "provider": "f08063",
    "region": "AS-CN-SOUTHCENTRAL-AH",
    "long": 115.787926,
    "lat": 33.871212,
    "numLocations": 1,
    "country": "CN",
    "city": "Bozhou",
    "delegate": "f022308"
  },
  "f08073": {
    "provider": "f08073",
    "region": "AS-SG",
    "long": 103.8547,
    "lat": 1.2929,
    "numLocations": 2,
    "country": "SG",
    "city": "Singapore",
    "delegate": "f01372912"
  },
  "f08076": {
    "provider": "f08076",
    "region": "EU-WEST-BE",
    "long": 5.3128,
    "lat": 51.2277,
    "numLocations": 3,
    "country": "BE",
    "subdiv1": "VLG",
    "city": "Lommel",
    "delegate": "f010446"
  },
  "f08088": {
    "provider": "f08088",
    "region": "AS-CN-SOUTHWEST-SC",
    "long": 104.067924,
    "lat": 30.679943,
    "numLocations": 1,
    "country": "CN",
    "city": "Chengdu",
    "delegate": "f082095"
  },
  "f08091": {
    "provider": "f08091",
    "region": "AS-CN-NORTH-SD",
    "long": 118.527664,
    "lat": 36.09929,
    "numLocations": 1,
    "country": "CN",
    "city": "Shandong",
    "delegate": "f0144313"
  },
  "f08094": {
    "provider": "f08094",
    "region": "AS-CN-SOUTH-GD",
    "long": 113.30765,
    "lat": 23.120049,
    "numLocations": 1,
    "country": "CN",
    "city": "Guangzhou"
  },
  "f08095": {
    "provider": "f08095",
    "region": "NA-CA-BC",
    "long": -123.0572,
    "lat": 49.3164,
    "numLocations": 3,
    "country": "CA",
    "subdiv1": "BC",
    "city": "North Vancouver",
    "delegate": "f010617"
  },
  "f08096": {
    "provider": "f08096",
    "region": "AS-CN-NORTH-BJ",
    "long": 116.40388,
    "lat": 39.91489,
    "numLocations": 2,
    "country": "CN",
    "city": "Beijing",
    "delegate": "f0149765"
  },
  "f08097": {
    "provider": "f08097",
    "region": "AS-KR",
    "long": 127.0672,
    "lat": 37.7303,
    "numLocations": 1,
    "country": "KR",
    "subdiv1": "41",
    "city": "Uijeongbu-si",
    "delegate": "f0401254"
  },
  "f08101": {
    "provider": "f08101",
    "region": "AS-CN-NORTH-BJ",
    "long": 116.40388,
    "lat": 39.91489,
    "numLocations": 1,
    "country": "CN",
    "city": "Beijing",
    "delegate": "f0391439"
  },
  "f08103": {
    "provider": "f08103",
    "region": "AS-CN-SOUTH-GD",
    "long": 113.134026,
    "lat": 23.035095,
    "numLocations": 1,
    "country": "CN",
    "city": "Foshan"
  },
  "f08109": {
    "provider": "f08109",
    "region": "AS-CN-XX",
    "long": 119.41942,
    "lat": 32.400677,
    "numLocations": 1,
    "country": "CN",
    "city": "Yangzhou",
    "delegate": "f01095915"
  },
  "f08135": {
    "provider": "f08135",
    "region": "AS-CN-SOUTHWEST-SC",
    "long": 121.579,
    "lat": 29.88526,
    "numLocations": 1,
    "country": "CN",
    "city": "Ningbo",
    "delegate": "f0110133"
  },
  "f08136": {
    "provider": "f08136",
    "region": "AS-CN-NORTH-BJ",
    "long": 116.40388,
    "lat": 39.91489,
    "numLocations": 1,
    "country": "CN",
    "city": "Beijing",
    "delegate": "f01049468"
  },
  "f08139": {
    "provider": "f08139",
    "region": "AS-SG",
    "long": 103.8547,
    "lat": 1.2929,
    "numLocations": 2,
    "country": "SG",
    "city": "Singapore",
    "delegate": "f014233"
  },
  "f08148": {
    "provider": "f08148",
    "region": "AS-HK",
    "long": 114.1657,
    "lat": 22.2578,
    "numLocations": 1,
    "country": "HK"
  },
  "f08149": {
    "provider": "f08149",
    "region": "AS-HK",
    "long": 114.1657,
    "lat": 22.2578,
    "numLocations": 1,
    "country": "HK",
    "delegate": "f01198583"
  },
  "f08150": {
    "provider": "f08150",
    "region": "AS-CN-EAST-ZJ",
    "long": 119.9572,
    "lat": 29.159494,
    "numLocations": 1,
    "country": "CN",
    "city": "Zhejiang",
    "delegate": "f0219106"
  },
  "f08157": {
    "provider": "f08157",
    "region": "AS-CN-NORTH-BJ",
    "long": 116.40388,
    "lat": 39.91489,
    "numLocations": 1,
    "country": "CN",
    "city": "Beijing"
  },
  "f08168": {
    "provider": "f08168",
    "region": "AS-SG",
    "long": 103.8014,
    "lat": 1.3673,
    "numLocations": 1,
    "country": "SG",
    "delegate": "f021461"
  },
  "f08171": {
    "provider": "f08171",
    "region": "AS-SG",
    "long": 103.9143,
    "lat": 1.3153,
    "numLocations": 1,
    "country": "SG",
    "city": "Singapore",
    "delegate": "f01715155"
  },
  "f08178": {
    "provider": "f08178",
    "region": "AS-CN-EAST-SH",
    "long": 121.4879,
    "lat": 31.24916,
    "numLocations": 2,
    "country": "CN",
    "city": "Shanghai",
    "delegate": "f0152337"
  },
  "f08183": {
    "provider": "f08183",
    "region": "NA-US-XX",
    "long": -97.822,
    "lat": 37.751,
    "numLocations": 1,
    "country": "US",
    "delegate": "f09848"
  },
  "f08197": {
    "provider": "f08197",
    "region": "AS-CN-SOUTH-GD",
    "long": 113.134026,
    "lat": 23.035095,
    "numLocations": 1,
    "country": "CN",
    "city": "Foshan"
  },
  "f08199": {
    "provider": "f08199",
    "region": "AS-CN-SOUTH-GD",
    "long": 114.02597,
    "lat": 22.546053,
    "numLocations": 1,
    "country": "CN",
    "city": "Shenzhen",
    "delegate": "f02416"
  },
  "f08203": {
    "provider": "f08203",
    "region": "AS-SG",
    "long": 103.8014,
    "lat": 1.3673,
    "numLocations": 1,
    "country": "SG",
    "delegate": "f010038"
  },
  "f08204": {
    "provider": "f08204",
    "region": "AS-CN-NORTH-HA",
    "long": 114.08549,
    "lat": 32.128582,
    "numLocations": 1,
    "country": "CN",
    "city": "Xinyang",
    "delegate": "f0756338"
  },
  "f08205": {
    "provider": "f08205",
    "region": "AS-CN-NORTH-SD",
    "long": 117.02496,
    "lat": 36.682785,
    "numLocations": 2,
    "country": "CN",
    "city": "Jinan",
    "delegate": "f01799"
  },
  "f08207": {
    "provider": "f08207",
    "region": "AS-CN-EAST-SH",
    "long": 121.4879,
    "lat": 31.24916,
    "numLocations": 3,
    "country": "CN",
    "city": "Shanghai",
    "delegate": "f0693008"
  },
  "f08220": {
    "provider": "f08220",
    "region": "OC-AU",
    "long": 115.8621,
    "lat": -31.9674,
    "numLocations": 1,
    "country": "AU",
    "subdiv1": "WA",
    "city": "Perth",
    "delegate": "f025002"
  },
  "f08223": {
    "provider": "f08223",
    "region": "NA-US-XX",
    "long": -97.822,
    "lat": 37.751,
    "numLocations": 2,
    "country": "US",
    "delegate": "f01832393"
  },
  "f08225": {
    "provider": "f08225",
    "region": "AS-CN-EAST-ZJ",
    "long": 120.219376,
    "lat": 30.259245,
    "numLocations": 1,
    "country": "CN",
    "city": "Hangzhou",
    "delegate": "f0746945"
  },
  "f08229": {
    "provider": "f08229",
    "region": "AS-CN-NORTHWEST-XJ",
    "long": 84.88118,
    "lat": 45.59433,
    "numLocations": 1,
    "country": "CN",
    "city": "Karamay",
    "delegate": "f0102374"
  },
  "f08235": {
    "provider": "f08235",
    "region": "AS-CN-EAST-ZJ",
    "long": 120.76043,
    "lat": 30.773993,
    "numLocations": 1,
    "country": "CN",
    "city": "Jiaxing",
    "delegate": "f023678"
  },
  "f08238": {
    "provider": "f08238",
    "region": "AS-CN-NORTHWEST-SN",
    "long": 108.953094,
    "lat": 34.2778,
    "numLocations": 1,
    "country": "CN",
    "city": "Xi'an",
    "delegate": "f09002"
  },
  "f08240": {
    "provider": "f08240",
    "region": "EU-EAST-RU",
    "long": 83.0335,
    "lat": 54.9022,
    "numLocations": 1,
    "country": "RU",
    "subdiv1": "NVS",
    "city": "Novosibirsk"
  },
  "f08242": {
    "provider": "f08242",
    "region": "AS-HK",
    "long": 114.1501,
    "lat": 22.2908,
    "numLocations": 1,
    "country": "HK",
    "subdiv1": "HCW",
    "city": "Central"
  },
  "f08246": {
    "provider": "f08246",
    "region": "AS-CN-NORTHWEST-XJ",
    "long": 84.88118,
    "lat": 45.59433,
    "numLocations": 1,
    "country": "CN",
    "city": "Karamay",
    "delegate": "f01853616"
  },
  "f08257": {
    "provider": "f08257",
    "region": "AS-CN-EAST-ZJ",
    "long": 119.9572,
    "lat": 29.159494,
    "numLocations": 4,
    "country": "CN",
    "city": "Zhejiang"
  },
  "f08264": {
    "provider": "f08264",
    "region": "AS-CN-EAST-JS",
    "long": 119.36849,
    "lat": 33.013798,
    "numLocations": 1,
    "country": "CN",
    "city": "Jiangsu"
  },
  "f08280": {
    "provider": "f08280",
    "region": "AS-CN-EAST-JS",
    "long": 119.42778,
    "lat": 32.408504,
    "numLocations": 1,
    "country": "CN",
    "city": "Yangzhou",
    "delegate": "f086028"
  },
  "f08284": {
    "provider": "f08284",
    "region": "AS-CN-NORTHEAST-LN",
    "long": 114.89378,
    "lat": 40.811188,
    "numLocations": 3,
    "country": "CN",
    "city": "Zhangjiakou",
    "delegate": "f033036"
  },
  "f08285": {
    "provider": "f08285",
    "region": "EU-NORTH-LV",
    "long": 24.0978,
    "lat": 56.9496,
    "numLocations": 1,
    "country": "LV",
    "subdiv1": "RIX",
    "city": "Riga"
  },
  "f08289": {
    "provider": "f08289",
    "region": "AS-CN-NORTH-BJ",
    "long": 106.53063,
    "lat": 29.544605,
    "numLocations": 1,
    "country": "CN",
    "city": "Chongqing",
    "delegate": "f0427989"
  },
  "f08290": {
    "provider": "f08290",
    "region": "AS-KR",
    "long": 127.2632,
    "lat": 37.4103,
    "numLocations": 1,
    "country": "KR",
    "subdiv1": "41",
    "city": "Gwangju",
    "delegate": "f01214418"
  },
  "f08293": {
    "provider": "f08293",
    "region": "AS-CN-SOUTHCENTRAL-HN",
    "long": 112.979355,
    "lat": 28.213478,
    "numLocations": 3,
    "country": "CN",
    "city": "Changsha",
    "delegate": "f0218407"
  },
  "f08295": {
    "provider": "f08295",
    "region": "AS-CN-EAST-JS",
    "long": 120.6199,
    "lat": 31.317987,
    "numLocations": 1,
    "country": "CN",
    "city": "Suzhou",
    "delegate": "f014394"
  },
  "f08301": {
    "provider": "f08301",
    "region": "AS-SG",
    "long": 103.8547,
    "lat": 1.2929,
    "numLocations": 1,
    "country": "SG",
    "city": "Singapore",
    "delegate": "f01190965"
  },
  "f08311": {
    "provider": "f08311",
    "region": "AS-CN-SOUTH-GD",
    "long": 116.3795,
    "lat": 23.548,
    "numLocations": 2,
    "country": "CN",
    "city": "Jieyang",
    "delegate": "f0469168"
  },
  "f08315": {
    "provider": "f08315",
    "region": "AS-CN-XX",
    "long": 113.75842,
    "lat": 23.027308,
    "numLocations": 1,
    "country": "CN",
    "city": "Dongguan",
    "delegate": "f01825045"
  },
  "f08319": {
    "provider": "f08319",
    "region": "AS-VN",
    "long": 105.8516,
    "lat": 21.0313,
    "numLocations": 1,
    "country": "VN",
    "subdiv1": "HN",
    "city": "Hanoi",
    "delegate": "f01111110"
  },
  "f08322": {
    "provider": "f08322",
    "region": "AS-CN-EAST-SH",
    "long": 121.4879,
    "lat": 31.24916,
    "numLocations": 1,
    "country": "CN",
    "city": "Shanghai",
    "delegate": "f010493"
  },
  "f08327": {
    "provider": "f08327",
    "region": "AS-CN-SOUTHWEST-SC",
    "long": 104.067924,
    "lat": 30.679943,
    "numLocations": 1,
    "country": "CN",
    "city": "Chengdu",
    "delegate": "f082095"
  },
  "f08330": {
    "provider": "f08330",
    "region": "AS-CN-SOUTHWEST-SC",
    "long": 104.067924,
    "lat": 30.679943,
    "numLocations": 1,
    "country": "CN",
    "city": "Chengdu",
    "delegate": "f039800"
  },
  "f08338": {
    "provider": "f08338",
    "region": "AS-CN-EAST-FJ",
    "long": 117.98494,
    "lat": 26.050117,
    "numLocations": 1,
    "country": "CN",
    "city": "Fujian",
    "delegate": "f0110936"
  },
  "f08342": {
    "provider": "f08342",
    "region": "EU-WEST-DE",
    "long": 8.6843,
    "lat": 50.1188,
    "numLocations": 1,
    "country": "DE",
    "subdiv1": "HE",
    "city": "Frankfurt am Main",
    "delegate": "f02303"
  },
  "f08344": {
    "provider": "f08344",
    "region": "AS-KR",
    "long": 127.2383,
    "lat": 37.6675,
    "numLocations": 1,
    "country": "KR",
    "subdiv1": "41",
    "city": "Namyangju",
    "delegate": "f01475317"
  },
  "f08346": {
    "provider": "f08346",
    "region": "AS-KR",
    "long": 128.5924,
    "lat": 35.8723,
    "numLocations": 1,
    "country": "KR",
    "subdiv1": "27",
    "city": "Daegu",
    "delegate": "f01784916"
  },
  "f08347": {
    "provider": "f08347",
    "region": "EU-WEST-DE",
    "long": 8.6843,
    "lat": 50.1188,
    "numLocations": 1,
    "country": "DE",
    "subdiv1": "HE",
    "city": "Frankfurt am Main",
    "delegate": "f02767"
  },
  "f08349": {
    "provider": "f08349",
    "region": "AS-CN-XX",
    "long": 113.722,
    "lat": 34.7732,
    "numLocations": 2,
    "country": "CN",
    "delegate": "f099239"
  },
  "f08358": {
    "provider": "f08358",
    "region": "AS-CN-NORTH-BJ",
    "long": 116.40388,
    "lat": 39.91489,
    "numLocations": 3,
    "country": "CN",
    "city": "Beijing",
    "delegate": "f0870354"
  },
  "f08361": {
    "provider": "f08361",
    "region": "EU-WEST-DE",
    "long": 8.6843,
    "lat": 50.1188,
    "numLocations": 1,
    "country": "DE",
    "subdiv1": "HE",
    "city": "Frankfurt am Main",
    "delegate": "f02767"
  },
  "f08371": {
    "provider": "f08371",
    "region": "NA-US-XX",
    "long": -97.822,
    "lat": 37.751,
    "numLocations": 2,
    "country": "US",
    "delegate": "f01137150"
  },
  "f08383": {
    "provider": "f08383",
    "region": "AS-CN-NORTHWEST-XJ",
    "long": 84.88118,
    "lat": 45.59433,
    "numLocations": 2,
    "country": "CN",
    "city": "Karamay"
  },
  "f08384": {
    "provider": "f08384",
    "region": "EU-EAST-RU",
    "long": 135.083,
    "lat": 48.4817,
    "numLocations": 3,
    "country": "RU",
    "subdiv1": "KHA",
    "city": "Khabarovsk",
    "delegate": "f014392"
  },
  "f08385": {
    "provider": "f08385",
    "region": "AS-CN-NORTHEAST-JL",
    "long": 125.313644,
    "lat": 43.89834,
    "numLocations": 2,
    "country": "CN",
    "city": "Changchun",
    "delegate": "f0878005"
  },
  "f08388": {
    "provider": "f08388",
    "region": "AS-CN-NORTH-SD",
    "long": 118.527664,
    "lat": 36.09929,
    "numLocations": 1,
    "country": "CN",
    "city": "Shandong",
    "delegate": "f023152"
  },
  "f08390": {
    "provider": "f08390",
    "region": "AS-HK",
    "long": 114.1501,
    "lat": 22.2908,
    "numLocations": 1,
    "country": "HK",
    "subdiv1": "HCW",
    "city": "Central",
    "delegate": "f01609999"
  },
  "f08393": {
    "provider": "f08393",
    "region": "NA-US-XX",
    "long": -97.822,
    "lat": 37.751,
    "numLocations": 2,
    "country": "US",
    "delegate": "f01832393"
  },
  "f08399": {
    "provider": "f08399",
    "region": "NA-US-WEST-WA",
    "long": -122.6322,
    "lat": 48.3108,
    "numLocations": 2,
    "country": "US",
    "subdiv1": "WA",
    "city": "Oak Harbor"
  },
  "f08402": {
    "provider": "f08402",
    "region": "AS-CN-NORTH-BJ",
    "long": 116.40388,
    "lat": 39.91489,
    "numLocations": 2,
    "country": "CN",
    "city": "Beijing",
    "delegate": "f0690459"
  },
  "f08403": {
    "provider": "f08403",
    "region": "EU-WEST-DE",
    "long": 10.3761,
    "lat": 52.1221,
    "numLocations": 6,
    "country": "DE",
    "subdiv1": "NI",
    "city": "Salzgitter"
  },
  "f08405": {
    "provider": "f08405",
    "region": "EU-WEST-DE",
    "long": 8.6843,
    "lat": 50.1188,
    "numLocations": 1,
    "country": "DE",
    "subdiv1": "HE",
    "city": "Frankfurt am Main",
    "delegate": "f02767"
  },
  "f08406": {
    "provider": "f08406",
    "region": "AS-KR",
    "long": 126.9741,
    "lat": 37.5112,
    "numLocations": 1,
    "country": "KR",
    "delegate": "f02731"
  },
  "f08418": {
    "provider": "f08418",
    "region": "AS-CN-NORTH-SD",
    "long": 118.527664,
    "lat": 36.09929,
    "numLocations": 1,
    "country": "CN",
    "city": "Shandong",
    "delegate": "f0144313"
  },
  "f08424": {
    "provider": "f08424",
    "region": "EU-WEST-DE",
    "long": 8.6843,
    "lat": 50.1188,
    "numLocations": 3,
    "country": "DE",
    "subdiv1": "HE",
    "city": "Frankfurt am Main",
    "delegate": "f0410001"
  },
  "f08425": {
    "provider": "f08425",
    "region": "AS-CN-SOUTHWEST-SC",
    "long": 104.067924,
    "lat": 30.679943,
    "numLocations": 1,
    "country": "CN",
    "city": "Chengdu",
    "delegate": "f082095"
  },
  "f08429": {
    "provider": "f08429",
    "region": "AS-CN-EAST-ZJ",
    "long": 119.9572,
    "lat": 29.159494,
    "numLocations": 1,
    "country": "CN",
    "city": "Zhejiang",
    "delegate": "f0219106"
  },
  "f08432": {
    "provider": "f08432",
    "region": "AS-CN-EAST-SH",
    "long": 106.1175,
    "lat": 30.843782,
    "numLocations": 1,
    "country": "CN",
    "city": "Nanchong",
    "delegate": "f022566"
  },
  "f08440": {
    "provider": "f08440",
    "region": "EU-WEST-FR",
    "long": 2.3387,
    "lat": 48.8582,
    "numLocations": 1,
    "country": "FR",
    "delegate": "f010479"
  },
  "f08446": {
    "provider": "f08446",
    "region": "AS-CN-SOUTH-GD",
    "long": 113.078125,
    "lat": 22.575117,
    "numLocations": 3,
    "country": "CN",
    "city": "Jiangmen",
    "delegate": "f01248"
  },
  "f08448": {
    "provider": "f08448",
    "region": "AS-CN-XX",
    "long": 120.215515,
    "lat": 30.253082,
    "numLocations": 1,
    "country": "CN",
    "city": "Hangzhou",
    "delegate": "f01086808"
  },
  "f08460": {
    "provider": "f08460",
    "region": "AS-SG",
    "long": 103.8014,
    "lat": 1.3673,
    "numLocations": 1,
    "country": "SG",
    "delegate": "f01235"
  },
  "f08474": {
    "provider": "f08474",
    "region": "EU-WEST-DE",
    "long": 8.6843,
    "lat": 50.1188,
    "numLocations": 2,
    "country": "DE",
    "subdiv1": "HE",
    "city": "Frankfurt am Main",
    "delegate": "f0508328"
  },
  "f08481": {
    "provider": "f08481",
    "region": "NA-US-WEST-CA",
    "long": -122.33,
    "lat": 37.5517,
    "numLocations": 1,
    "country": "US",
    "subdiv1": "CA",
    "city": "San Mateo",
    "delegate": "f03176"
  },
  "f08482": {
    "provider": "f08482",
    "region": "AS-CN-EAST-SH",
    "long": 121.4879,
    "lat": 31.24916,
    "numLocations": 2,
    "country": "CN",
    "city": "Shanghai",
    "delegate": "f0152337"
  },
  "f08497": {
    "provider": "f08497",
    "region": "EU-SOUTH-RS",
    "long": 21.8952,
    "lat": 42.5545,
    "numLocations": 1,
    "country": "RS",
    "subdiv1": "24",
    "city": "Vranje",
    "delegate": "f019029"
  },
  "f08503": {
    "provider": "f08503",
    "region": "EU-WEST-DE",
    "long": 8.6843,
    "lat": 50.1188,
    "numLocations": 1,
    "country": "DE",
    "subdiv1": "HE",
    "city": "Frankfurt am Main",
    "delegate": "f010616"
  },
  "f08532": {
    "provider": "f08532",
    "region": "NA-US-XX",
    "long": -97.822,
    "lat": 37.751,
    "numLocations": 1,
    "country": "US"
  },
  "f08568": {
    "provider": "f08568",
    "region": "NA-US-SOUTH-NC",
    "long": -79.8557,
    "lat": 35.6383,
    "numLocations": 1,
    "country": "US",
    "subdiv1": "NC",
    "city": "Asheboro",
    "delegate": "f014409"
  },
  "f08572": {
    "provider": "f08572",
    "region": "EU-WEST-DE",
    "long": 8.6843,
    "lat": 50.1188,
    "numLocations": 1,
    "country": "DE",
    "subdiv1": "HE",
    "city": "Frankfurt am Main",
    "delegate": "f02767"
  },
  "f08574": {
    "provider": "f08574",
    "region": "EU-WEST-DE",
    "long": 8.6843,
    "lat": 50.1188,
    "numLocations": 1,
    "country": "DE",
    "subdiv1": "HE",
    "city": "Frankfurt am Main",
    "delegate": "f02767"
  },
  "f08684": {
    "provider": "f08684",
    "region": "AS-CN-SOUTHWEST-SC",
    "long": 104.067924,
    "lat": 30.679943,
    "numLocations": 1,
    "country": "CN",
    "city": "Chengdu",
    "delegate": "f082095"
  },
  "f08685": {
    "provider": "f08685",
    "region": "EU-WEST-DE",
    "long": 8.6843,
    "lat": 50.1188,
    "numLocations": 1,
    "country": "DE",
    "subdiv1": "HE",
    "city": "Frankfurt am Main",
    "delegate": "f02767"
  },
  "f08787": {
    "provider": "f08787",
    "region": "AS-JP",
    "long": 139.6895,
    "lat": 35.6897,
    "numLocations": 2,
    "country": "JP",
    "delegate": "f0397083"
  },
  "f08789": {
    "provider": "f08789",
    "region": "AS-CN-SOUTHCENTRAL-JX",
    "long": 116.360916,
    "lat": 27.954546,
    "numLocations": 1,
    "country": "CN",
    "city": "Fuzhou",
    "delegate": "f023853"
  },
  "f08791": {
    "provider": "f08791",
    "region": "AS-KR",
    "long": 126.9113,
    "lat": 37.5198,
    "numLocations": 2,
    "country": "KR",
    "subdiv1": "11",
    "city": "Yeongdeungpo-gu",
    "delegate": "f0712678"
  },
  "f08793": {
    "provider": "f08793",
    "region": "AS-CN-XX",
    "long": 108.946465,
    "lat": 34.347267,
    "numLocations": 2,
    "country": "CN",
    "city": "Xi'an",
    "delegate": "f087879"
  },
  "f08854": {
    "provider": "f08854",
    "region": "AS-CN-NORTH-SD",
    "long": 118.527664,
    "lat": 36.09929,
    "numLocations": 1,
    "country": "CN",
    "city": "Shandong",
    "delegate": "f0144313"
  },
  "f08893": {
    "provider": "f08893",
    "region": "AS-HK",
    "long": 114.1501,
    "lat": 22.2908,
    "numLocations": 3,
    "country": "HK",
    "subdiv1": "HCW",
    "city": "Central",
    "delegate": "f068556"
  },
  "f08902": {
    "provider": "f08902",
    "region": "OC-AU",
    "long": 115.8621,
    "lat": -31.9674,
    "numLocations": 1,
    "country": "AU",
    "subdiv1": "WA",
    "city": "Perth",
    "delegate": "f025002"
  },
  "f08904": {
    "provider": "f08904",
    "region": "NA-US-XX",
    "long": -97.822,
    "lat": 37.751,
    "numLocations": 1,
    "country": "US",
    "delegate": "f01824222"
  },
  "f08908": {
    "provider": "f08908",
    "region": "AS-CN-SOUTH-GD",
    "long": 113.39482,
    "lat": 23.408003,
    "numLocations": 2,
    "country": "CN",
    "city": "Guangdong",
    "delegate": "f0488689"
  },
  "f08911": {
    "provider": "f08911",
    "region": "AS-CN-EAST-SH",
    "long": 121.4879,
    "lat": 31.24916,
    "numLocations": 1,
    "country": "CN",
    "city": "Shanghai",
    "delegate": "f01179282"
  },
  "f08917": {
    "provider": "f08917",
    "region": "AS-CN-SOUTHWEST-SC",
    "long": 102.89916,
    "lat": 30.367481,
    "numLocations": 1,
    "country": "CN",
    "city": "Sichuan",
    "delegate": "f01279"
  },
  "f08928": {
    "provider": "f08928",
    "region": "AS-CN-NORTH-SD",
    "long": 118.527664,
    "lat": 36.09929,
    "numLocations": 1,
    "country": "CN",
    "city": "Shandong",
    "delegate": "f0144313"
  },
  "f08937": {
    "provider": "f08937",
    "region": "AS-CN-SOUTH-GD",
    "long": 113.763435,
    "lat": 23.043024,
    "numLocations": 1,
    "country": "CN",
    "city": "Dongguan",
    "delegate": "f0153960"
  },
  "f08949": {
    "provider": "f08949",
    "region": "AS-CN-EAST-ZJ",
    "long": 120.219376,
    "lat": 30.259245,
    "numLocations": 1,
    "country": "CN",
    "city": "Hangzhou",
    "delegate": "f0746945"
  },
  "f08958": {
    "provider": "f08958",
    "region": "AS-CN-NORTH-HA",
    "long": 114.08549,
    "lat": 32.128582,
    "numLocations": 1,
    "country": "CN",
    "city": "Xinyang",
    "delegate": "f0756338"
  },
  "f08964": {
    "provider": "f08964",
    "region": "AS-CN-NORTHEAST-JL",
    "long": 125.313644,
    "lat": 43.89834,
    "numLocations": 2,
    "country": "CN",
    "city": "Changchun",
    "delegate": "f01431043"
  },
  "f08980": {
    "provider": "f08980",
    "region": "AS-SG",
    "long": 103.8014,
    "lat": 1.3673,
    "numLocations": 1,
    "country": "SG",
    "delegate": "f021547"
  },
  "f08985": {
    "provider": "f08985",
    "region": "AS-XX",
    "long": 79.8892,
    "lat": 6.9215,
    "numLocations": 2,
    "country": "LK",
    "subdiv1": "1",
    "city": "Rajagiriya",
    "delegate": "f0867298"
  },
  "f08986": {
    "provider": "f08986",
    "region": "AS-CN-EAST-ZJ",
    "long": 119.9572,
    "lat": 29.159494,
    "numLocations": 1,
    "country": "CN",
    "city": "Zhejiang",
    "delegate": "f0219106"
  },
  "f08988": {
    "provider": "f08988",
    "region": "EU-WEST-DE",
    "long": 8.6843,
    "lat": 50.1188,
    "numLocations": 1,
    "country": "DE",
    "subdiv1": "HE",
    "city": "Frankfurt am Main",
    "delegate": "f02767"
  },
  "f08994": {
    "provider": "f08994",
    "region": "AS-CN-NORTH-HA",
    "long": 113.4868,
    "lat": 34.157185,
    "numLocations": 2,
    "country": "CN",
    "city": "Henan",
    "delegate": "f01154827"
  },
  "f08995": {
    "provider": "f08995",
    "region": "AS-CN-SOUTHWEST-SC",
    "long": 104.067924,
    "lat": 30.679943,
    "numLocations": 1,
    "country": "CN",
    "city": "Chengdu",
    "delegate": "f0700999"
  },
  "f09002": {
    "provider": "f09002",
    "region": "AS-CN-NORTHWEST-SN",
    "long": 108.953094,
    "lat": 34.2778,
    "numLocations": 1,
    "country": "CN",
    "city": "Xi'an"
  },
  "f09006": {
    "provider": "f09006",
    "region": "AS-CN-NORTH-BJ",
    "long": 116.385,
    "lat": 39.9285,
    "numLocations": 2,
    "country": "CN",
    "subdiv1": "BJ",
    "city": "Beijing",
    "delegate": "f0118330"
  },
  "f09007": {
    "provider": "f09007",
    "region": "AS-CN-NORTH-BJ",
    "long": 116.40388,
    "lat": 39.91489,
    "numLocations": 2,
    "country": "CN",
    "city": "Beijing",
    "delegate": "f0134682"
  },
  "f09029": {
    "provider": "f09029",
    "region": "AS-CN-EAST-FJ",
    "long": 117.98494,
    "lat": 26.050117,
    "numLocations": 1,
    "country": "CN",
    "city": "Fujian",
    "delegate": "f0141614"
  },
  "f09035": {
    "provider": "f09035",
    "region": "AS-SG",
    "long": 103.8014,
    "lat": 1.3673,
    "numLocations": 1,
    "country": "SG",
    "delegate": "f09037"
  },
  "f09036": {
    "provider": "f09036",
    "region": "AS-CN-SOUTHWEST-SC",
    "long": 104.067924,
    "lat": 30.679943,
    "numLocations": 1,
    "country": "CN",
    "city": "Chengdu",
    "delegate": "f039800"
  },
  "f09037": {
    "provider": "f09037",
    "region": "AS-SG",
    "long": 103.8014,
    "lat": 1.3673,
    "numLocations": 1,
    "country": "SG"
  },
  "f09053": {
    "provider": "f09053",
    "region": "AS-KR",
    "long": 126.9113,
    "lat": 37.5198,
    "numLocations": 2,
    "country": "KR",
    "subdiv1": "11",
    "city": "Yeongdeungpo-gu",
    "delegate": "f0712678"
  },
  "f09055": {
    "provider": "f09055",
    "region": "AS-CN-SOUTH-GD",
    "long": 113.39482,
    "lat": 23.408003,
    "numLocations": 2,
    "country": "CN",
    "city": "Guangdong",
    "delegate": "f09710"
  },
  "f09056": {
    "provider": "f09056",
    "region": "AS-CN-EAST-SH",
    "long": 121.4879,
    "lat": 31.24916,
    "numLocations": 2,
    "country": "CN",
    "city": "Shanghai",
    "delegate": "f0152337"
  },
  "f09076": {
    "provider": "f09076",
    "region": "AS-CN-XX",
    "long": 119.653435,
    "lat": 29.084639,
    "numLocations": 2,
    "country": "CN",
    "city": "Jinhua",
    "delegate": "f015885"
  },
  "f09084": {
    "provider": "f09084",
    "region": "AS-CN-NORTH-SD",
    "long": 118.527664,
    "lat": 36.09929,
    "numLocations": 1,
    "country": "CN",
    "city": "Shandong",
    "delegate": "f0144313"
  },
  "f09087": {
    "provider": "f09087",
    "region": "AS-CN-SOUTH-GD",
    "long": 113.39482,
    "lat": 23.408003,
    "numLocations": 2,
    "country": "CN",
    "city": "Guangdong",
    "delegate": "f02438"
  },
  "f09091": {
    "provider": "f09091",
    "region": "EU-WEST-NL",
    "long": 4.8995,
    "lat": 52.3824,
    "numLocations": 2,
    "country": "NL",
    "delegate": "f010035"
  },
  "f09261": {
    "provider": "f09261",
    "region": "AS-CN-SOUTHCENTRAL-HN",
    "long": 112.979355,
    "lat": 28.213478,
    "numLocations": 1,
    "country": "CN",
    "city": "Changsha",
    "delegate": "f054666"
  },
  "f09523": {
    "provider": "f09523",
    "region": "AS-CN-NORTHEAST-HL",
    "long": 122.048164,
    "lat": 46.083755,
    "numLocations": 1,
    "country": "CN",
    "subdiv1": "HL",
    "city": "Dongsheng",
    "delegate": "f0440919"
  },
  "f09529": {
    "provider": "f09529",
    "region": "NA-US-WEST-OR",
    "long": -119.7143,
    "lat": 45.8491,
    "numLocations": 1,
    "country": "US",
    "subdiv1": "OR",
    "city": "Boardman",
    "delegate": "f01868890"
  },
  "f09537": {
    "provider": "f09537",
    "region": "NA-US-MIDWEST-NE",
    "long": -96.651,
    "lat": 40.8035,
    "numLocations": 1,
    "country": "US",
    "subdiv1": "NE",
    "city": "Lincoln",
    "delegate": "f01091851"
  },
  "f09538": {
    "provider": "f09538",
    "region": "AS-CN-NORTH-HA",
    "long": 115.641884,
    "lat": 34.438587,
    "numLocations": 1,
    "country": "CN",
    "delegate": "f010305"
  },
  "f09555": {
    "provider": "f09555",
    "region": "AS-HK",
    "long": 114.1501,
    "lat": 22.2908,
    "numLocations": 1,
    "country": "HK",
    "subdiv1": "HCW",
    "delegate": "f0717289"
  },
  "f09559": {
    "provider": "f09559",
    "region": "AS-CN-EAST-SH",
    "long": 121.4879,
    "lat": 31.24916,
    "numLocations": 2,
    "country": "CN",
    "city": "Shanghai",
    "delegate": "f0152337"
  },
  "f09560": {
    "provider": "f09560",
    "region": "AS-CN-XX",
    "long": 114.06455,
    "lat": 22.548456,
    "numLocations": 1,
    "country": "CN",
    "city": "Shenzhen",
    "delegate": "f01416862"
  },
  "f09561": {
    "provider": "f09561",
    "region": "AS-CN-XX",
    "long": 113.722,
    "lat": 34.7732,
    "numLocations": 2,
    "country": "CN",
    "delegate": "f019240"
  },
  "f09565": {
    "provider": "f09565",
    "region": "AS-CN-NORTHWEST-XJ",
    "long": 84.88118,
    "lat": 45.59433,
    "numLocations": 1,
    "country": "CN",
    "city": "Karamay",
    "delegate": "f01780906"
  },
  "f09569": {
    "provider": "f09569",
    "region": "EU-WEST-DE",
    "long": 8.6843,
    "lat": 50.1188,
    "numLocations": 1,
    "country": "DE",
    "subdiv1": "HE",
    "city": "Frankfurt am Main",
    "delegate": "f089228"
  },
  "f09573": {
    "provider": "f09573",
    "region": "AS-CN-NORTHEAST-HL",
    "long": 122.048164,
    "lat": 46.083755,
    "numLocations": 1,
    "country": "CN",
    "subdiv1": "HL",
    "city": "Dongsheng",
    "delegate": "f0440919"
  },
  "f09578": {
    "provider": "f09578",
    "region": "AS-CN-NORTH-TJ",
    "long": 117.210815,
    "lat": 39.14393,
    "numLocations": 1,
    "country": "CN",
    "city": "Tianjin",
    "delegate": "f0763981"
  },
  "f09589": {
    "provider": "f09589",
    "region": "AS-CN-SOUTHCENTRAL-HN",
    "long": 112.979355,
    "lat": 28.213478,
    "numLocations": 1,
    "country": "CN",
    "city": "Changsha"
  },
  "f09592": {
    "provider": "f09592",
    "region": "AS-JP",
    "long": 139.9807,
    "lat": 36.8843,
    "numLocations": 2,
    "country": "JP",
    "subdiv1": "09",
    "city": "Utsunomiya",
    "delegate": "f010254"
  },
  "f09594": {
    "provider": "f09594",
    "region": "NA-US-XX",
    "long": -97.822,
    "lat": 37.751,
    "numLocations": 1,
    "country": "US",
    "delegate": "f01829181"
  },
  "f09597": {
    "provider": "f09597",
    "region": "AS-HK",
    "long": 114.1501,
    "lat": 22.2908,
    "numLocations": 1,
    "country": "HK",
    "subdiv1": "HCW",
    "city": "Central",
    "delegate": "f0126535"
  },
  "f09605": {
    "provider": "f09605",
    "region": "AS-CN-NORTH-HA",
    "long": 113.64964,
    "lat": 34.75661,
    "numLocations": 1,
    "country": "CN",
    "city": "Zhengzhou",
    "delegate": "f01025894"
  },
  "f09610": {
    "provider": "f09610",
    "region": "AS-CN-EAST-JS",
    "long": 120.30546,
    "lat": 31.570038,
    "numLocations": 1,
    "country": "CN",
    "city": "Wuxi",
    "delegate": "f01280"
  },
  "f09615": {
    "provider": "f09615",
    "region": "NA-US-XX",
    "long": -97.822,
    "lat": 37.751,
    "numLocations": 2,
    "country": "US",
    "delegate": "f01137150"
  },
  "f09619": {
    "provider": "f09619",
    "region": "NA-US-WEST-CA",
    "long": -118.1569,
    "lat": 34.1082,
    "numLocations": 3,
    "country": "US",
    "subdiv1": "CA",
    "city": "South Pasadena",
    "delegate": "f0717969"
  },
  "f09620": {
    "provider": "f09620",
    "region": "AS-CN-NORTH-SD",
    "long": 119.14263,
    "lat": 36.716114,
    "numLocations": 1,
    "country": "CN",
    "city": "Weifang"
  },
  "f09629": {
    "provider": "f09629",
    "region": "AS-HK",
    "long": 114.1501,
    "lat": 22.2908,
    "numLocations": 3,
    "country": "HK",
    "subdiv1": "HCW",
    "city": "Central",
    "delegate": "f068556"
  },
  "f09631": {
    "provider": "f09631",
    "region": "AS-CN-EAST-SH",
    "long": 121.4879,
    "lat": 31.24916,
    "numLocations": 2,
    "country": "CN",
    "city": "Shanghai",
    "delegate": "f0152337"
  },
  "f09639": {
    "provider": "f09639",
    "region": "AS-HK",
    "long": 114.1667,
    "lat": 22.3,
    "numLocations": 2,
    "country": "HK",
    "subdiv1": "KKC",
    "city": "Tsimshatsui",
    "delegate": "f01684306"
  },
  "f09642": {
    "provider": "f09642",
    "region": "EU-NORTH-SE",
    "long": 18.01,
    "lat": 59.2735,
    "numLocations": 1,
    "country": "SE",
    "subdiv1": "AB",
    "city": "Alvsjo"
  },
  "f09643": {
    "provider": "f09643",
    "region": "EU-WEST-DE",
    "long": 8.6843,
    "lat": 50.1188,
    "numLocations": 1,
    "country": "DE",
    "subdiv1": "HE",
    "city": "Frankfurt am Main",
    "delegate": "f02767"
  },
  "f09652": {
    "provider": "f09652",
    "region": "AS-SG",
    "long": 103.8014,
    "lat": 1.3673,
    "numLocations": 1,
    "country": "SG"
  },
  "f09653": {
    "provider": "f09653",
    "region": "NA-US-MIDWEST-OH",
    "long": -83.0061,
    "lat": 39.9625,
    "numLocations": 1,
    "country": "US",
    "subdiv1": "OH",
    "city": "Columbus",
    "delegate": "f01707569"
  },
  "f09656": {
    "provider": "f09656",
    "region": "AS-CN-NORTHEAST-LN",
    "long": 123.43279,
    "lat": 41.808643,
    "numLocations": 1,
    "country": "CN",
    "city": "Shenyang",
    "delegate": "f017665"
  },
  "f09662": {
    "provider": "f09662",
    "region": "NA-CA-BC",
    "long": -123.0572,
    "lat": 49.3164,
    "numLocations": 3,
    "country": "CA",
    "subdiv1": "BC",
    "city": "North Vancouver",
    "delegate": "f010617"
  },
  "f09664": {
    "provider": "f09664",
    "region": "AS-CN-SOUTHWEST-SC",
    "long": 104.40442,
    "lat": 31.133116,
    "numLocations": 1,
    "country": "CN",
    "city": "Deyang",
    "delegate": "f0700033"
  },
  "f09672": {
    "provider": "f09672",
    "region": "EU-WEST-DE",
    "long": 8.6843,
    "lat": 50.1188,
    "numLocations": 1,
    "country": "DE",
    "subdiv1": "HE",
    "city": "Frankfurt am Main",
    "delegate": "f02767"
  },
  "f09675": {
    "provider": "f09675",
    "region": "AS-HK",
    "long": 114.1501,
    "lat": 22.2908,
    "numLocations": 1,
    "country": "HK",
    "subdiv1": "HCW",
    "city": "Central"
  },
  "f09689": {
    "provider": "f09689",
    "region": "AS-CN-EAST-SH",
    "long": 121.4879,
    "lat": 31.24916,
    "numLocations": 2,
    "country": "CN",
    "city": "Shanghai"
  },
  "f09693": {
    "provider": "f09693",
    "region": "AS-CN-NORTHWEST-XJ",
    "long": 84.88118,
    "lat": 45.59433,
    "numLocations": 1,
    "country": "CN",
    "city": "Karamay"
  },
  "f09696": {
    "provider": "f09696",
    "region": "AS-CN-NORTHWEST-XJ",
    "long": 84.88118,
    "lat": 45.59433,
    "numLocations": 2,
    "country": "CN",
    "city": "Karamay"
  },
  "f09704": {
    "provider": "f09704",
    "region": "AS-CN-SOUTH-GD",
    "long": 114.02597,
    "lat": 22.546053,
    "numLocations": 3,
    "country": "CN",
    "city": "Shenzhen",
    "delegate": "f087530"
  },
  "f09707": {
    "provider": "f09707",
    "region": "AS-CN-SOUTH-GD",
    "long": 116.3795,
    "lat": 23.548,
    "numLocations": 2,
    "country": "CN",
    "city": "Jieyang",
    "delegate": "f0469168"
  },
  "f09710": {
    "provider": "f09710",
    "region": "AS-CN-SOUTH-GD",
    "long": 113.39482,
    "lat": 23.408003,
    "numLocations": 2,
    "country": "CN",
    "city": "Guangdong"
  },
  "f09712": {
    "provider": "f09712",
    "region": "NA-US-WEST-OR",
    "long": -119.7143,
    "lat": 45.8491,
    "numLocations": 1,
    "country": "US",
    "subdiv1": "OR",
    "city": "Boardman",
    "delegate": "f01780723"
  },
  "f09719": {
    "provider": "f09719",
    "region": "AS-SG",
    "long": 103.8014,
    "lat": 1.3673,
    "numLocations": 1,
    "country": "SG",
    "delegate": "f01235"
  },
  "f09721": {
    "provider": "f09721",
    "region": "AS-CN-SOUTHWEST-SC",
    "long": 104.067924,
    "lat": 30.679943,
    "numLocations": 1,
    "country": "CN",
    "city": "Chengdu",
    "delegate": "f039800"
  },
  "f09729": {
    "provider": "f09729",
    "region": "NA-US-NORTHEAST-NJ",
    "long": -74.2183,
    "lat": 40.7417,
    "numLocations": 2,
    "country": "US",
    "subdiv1": "NJ",
    "city": "Newark",
    "delegate": "f01837294"
  },
  "f09731": {
    "provider": "f09731",
    "region": "AS-HK",
    "long": 114.1657,
    "lat": 22.2578,
    "numLocations": 1,
    "country": "HK",
    "delegate": "f01445167"
  },
  "f09733": {
    "provider": "f09733",
    "region": "AS-CN-SOUTHWEST-CQ",
    "long": 106.53063,
    "lat": 29.544605,
    "numLocations": 1,
    "country": "CN",
    "city": "Chongqing",
    "delegate": "f048135"
  },
  "f09734": {
    "provider": "f09734",
    "region": "AS-CN-XX",
    "long": 113.75842,
    "lat": 23.027308,
    "numLocations": 5,
    "country": "CN",
    "city": "Dongguan",
    "delegate": "f0397728"
  },
  "f09736": {
    "provider": "f09736",
    "region": "AS-CN-NORTHWEST-XJ",
    "long": 84.88118,
    "lat": 45.59433,
    "numLocations": 2,
    "country": "CN",
    "city": "Karamay",
    "delegate": "f010253"
  },
  "f09737": {
    "provider": "f09737",
    "region": "AS-HK",
    "long": 114.1657,
    "lat": 22.2578,
    "numLocations": 1,
    "country": "HK",
    "delegate": "f01098835"
  },
  "f09748": {
    "provider": "f09748",
    "region": "AS-HK",
    "long": 114.2217,
    "lat": 22.2749,
    "numLocations": 1,
    "country": "HK",
    "subdiv1": "HEA",
    "city": "Eastern",
    "delegate": "f01736566"
  },
  "f09753": {
    "provider": "f09753",
    "region": "AS-KR",
    "long": 127.0672,
    "lat": 37.7303,
    "numLocations": 1,
    "country": "KR",
    "subdiv1": "41",
    "city": "Uijeongbu-si",
    "delegate": "f020904"
  },
  "f09761": {
    "provider": "f09761",
    "region": "AS-CN-NORTH-BJ",
    "long": 116.40388,
    "lat": 39.91489,
    "numLocations": 1,
    "country": "CN",
    "city": "Beijing",
    "delegate": "f020436"
  },
  "f09762": {
    "provider": "f09762",
    "region": "AS-VN",
    "long": 105.8516,
    "lat": 21.0313,
    "numLocations": 3,
    "country": "VN",
    "subdiv1": "HN",
    "city": "Hanoi",
    "delegate": "f01158696"
  },
  "f09763": {
    "provider": "f09763",
    "region": "AS-HK",
    "long": 114.1657,
    "lat": 22.2578,
    "numLocations": 2,
    "country": "HK",
    "delegate": "f0409069"
  },
  "f09770": {
    "provider": "f09770",
    "region": "AS-HK",
    "long": 114.1657,
    "lat": 22.2578,
    "numLocations": 2,
    "country": "HK",
    "delegate": "f079370"
  },
  "f09771": {
    "provider": "f09771",
    "region": "AS-HK",
    "long": 114.1657,
    "lat": 22.2578,
    "numLocations": 2,
    "country": "HK",
    "delegate": "f079370"
  },
  "f09801": {
    "provider": "f09801",
    "region": "AS-JP",
    "long": 127.795,
    "lat": 26.3047,
    "numLocations": 1,
    "country": "JP",
    "subdiv1": "47",
    "city": "Okinawa",
    "delegate": "f0523396"
  },